{
  "北海道　札幌市": {
    "lat": 43.061972,
    "long": 141.354374,
    "building": "札幌市役所",
    "address": "札幌市中央区北1条西2丁目",
    "urls": ["https://www.city.sapporo.jp/gikai/meibo/meibo-50on.html"],
    "reprs_xpath": "//*[@id='tmp_contents']"
  },
  "北海道　札幌市中央区": {
    "lat": 43.061459,
    "long": 141.353817,
    "building": "札幌市中央区役所",
    "address": "札幌市中央区大通西2丁目9",
    "urls": ["https://www.city.sapporo.jp/gikai/meibo/meibo-ku.html"],
    "reprs_xpath": "//*[@id=\"tmp_contents\"]/table[1]/tbody"
  },
  "北海道　札幌市北区": {
    "lat": 43.090693,
    "long": 141.340882,
    "building": "札幌市北区役所",
    "address": "札幌市北区北24条西6丁目1-1",
    "urls": ["https://www.city.sapporo.jp/gikai/meibo/meibo-ku.html"],
    "reprs_xpath": "//*[@id=\"tmp_contents\"]/table[2]/tbody"
  },
  "北海道　札幌市東区": {
    "lat": 43.076242,
    "long": 141.363662,
    "building": "札幌市東区役所",
    "address": "札幌市東区北11条東7丁目1-1",
    "urls": ["https://www.city.sapporo.jp/gikai/meibo/meibo-ku.html"],
    "reprs_xpath": "//*[@id=\"tmp_contents\"]/table[3]/tbody"
  },
  "北海道　札幌市白石区": {
    "lat": 43.045445,
    "long": 141.396378,
    "building": "札幌市白石区役所",
    "address": "札幌市白石区南郷通1丁目南8-1",
    "urls": ["https://www.city.sapporo.jp/gikai/meibo/meibo-ku.html"],
    "reprs_xpath": "//*[@id=\"tmp_contents\"]/table[4]/tbody"
  },
  "北海道　札幌市豊平区": {
    "lat": 43.03137,
    "long": 141.379974,
    "building": "札幌市豊平区役所",
    "address": "札幌市豊平区平岸6条10丁目1-1",
    "urls": ["https://www.city.sapporo.jp/gikai/meibo/meibo-ku.html"],
    "reprs_xpath": "//*[@id=\"tmp_contents\"]/table[6]/tbody"
  },
  "北海道　札幌市南区": {
    "lat": 42.989995,
    "long": 141.353496,
    "building": "札幌市南区役所",
    "address": "札幌市南区真駒内幸町2丁目2-1",
    "urls": ["https://www.city.sapporo.jp/gikai/meibo/meibo-ku.html"],
    "reprs_xpath": "//*[@id=\"tmp_contents\"]/table[8]/tbody"
  },
  "北海道　札幌市西区": {
    "lat": 43.074347,
    "long": 141.300898,
    "building": "札幌市西区役所",
    "address": "札幌市西区琴似2条7丁目1-1",
    "urls": ["https://www.city.sapporo.jp/gikai/meibo/meibo-ku.html"],
    "reprs_xpath": "//*[@id=\"tmp_contents\"]/table[9]/tbody"
  },
  "北海道　札幌市厚別区": {
    "lat": 43.036213,
    "long": 141.474733,
    "building": "札幌市厚別区役所",
    "address": "札幌市厚別区厚別中央1条5丁目3-2",
    "urls": ["https://www.city.sapporo.jp/gikai/meibo/meibo-ku.html"],
    "reprs_xpath": "//*[@id=\"tmp_contents\"]/table[5]/tbody"
  },
  "北海道　札幌市手稲区": {
    "lat": 43.121972,
    "long": 141.245782,
    "building": "札幌市手稲区役所",
    "address": "札幌市手稲区前田1条11丁目1-10",
    "urls": ["https://www.city.sapporo.jp/gikai/meibo/meibo-ku.html"],
    "reprs_xpath": "//*[@id=\"tmp_contents\"]/table[10]/tbody"
  },
  "北海道　札幌市清田区": {
    "lat": 42.999432,
    "long": 141.443842,
    "building": "札幌市清田区役所",
    "address": "札幌市清田区平岡1条1丁目2-1",
    "urls": ["https://www.city.sapporo.jp/gikai/meibo/meibo-ku.html"],
    "reprs_xpath": "//*[@id=\"tmp_contents\"]/table[7]/tbody"
  },
  "北海道　函館市": {
    "lat": 41.768712,
    "long": 140.729108,
    "building": "函館市役所",
    "address": "函館市東雲町4-13",
    "urls": ["https://www.city.hakodate.hokkaido.jp/docs/2014022600191/"],
    "reprs_xpath": "//div[@id='contentBody']"
  },
  "北海道　小樽市": {
    "lat": 43.190753,
    "long": 140.994605,
    "building": "小樽市役所",
    "address": "小樽市花園2-12-1",
    "urls": ["https://www.city.otaru.lg.jp/docs/2020113000627"],
    "reprs_xpath": "//*[@id=\"docs_content\"]/article/div[2]/div/div"
  },
  "北海道　旭川市": {
    "lat": 43.770799,
    "long": 142.364798,
    "building": "旭川市役所",
    "address": "旭川市6条通9丁目",
    "urls": [
      "https://www.city.asahikawa.hokkaido.jp/council/6100/6120/d077435.html"
    ],
    "reprs_xpath": "//*[@id=\"content\"]/div/div[2]/div/div[2]/div"
  },
  "北海道　室蘭市": {
    "lat": 42.315204,
    "long": 140.973784,
    "building": "室蘭市役所",
    "address": "室蘭市幸町1-2",
    "urls": ["https://www.city.muroran.lg.jp/main/org8450/councilman.html"],
    "reprs_xpath": "//*[@id=\"tmp_contents\"]/table"
  },
  "北海道　釧路市": {
    "lat": 42.984856,
    "long": 144.38167,
    "building": "釧路市役所",
    "address": "釧路市黒金町7-5",
    "urls": [
      "https://www.city.kushiro.lg.jp/shigikai/shigikaikara/1002833.html"
    ],
    "reprs_xpath": "//*[@id=\"voice\"]"
  },
  "北海道　帯広市": {
    "lat": 42.924014,
    "long": 143.196195,
    "building": "帯広市役所",
    "address": "帯広市西5条南7-1",
    "urls": [
      "https://www.city.obihiro.hokkaido.jp/shisei/shigikai/giinn/1001270.html"
    ],
    "reprs_xpath": "//*[@id=\"houdou_mail_body\"]"
  },
  "北海道　北見市": {
    "lat": 43.803197,
    "long": 143.894925,
    "building": "北見市役所",
    "address": "北見市大通西3丁目1番地1",
    "urls": [
      "https://www.city.kitami.lg.jp/administration/town/detail.php?content=9031"
    ],
    "reprs_xpath": "/html/body/div/div[4]/div"
  },
  "北海道　夕張市": {
    "lat": 43.056814,
    "long": 141.974069,
    "building": "夕張市役所",
    "address": "夕張市本町4-2",
    "urls": [
      "https://www.city.yubari.lg.jp/smph/shigikai/shigikainoshikumi/giinmeibo.html"
    ],
    "reprs_xpath": "//*[@id=\"contents-area\"]"
  },
  "北海道　岩見沢市": {
    "lat": 43.196028,
    "long": 141.775355,
    "building": "岩見沢市役所",
    "address": "岩見沢市鳩が丘1-1-1",
    "urls": [
      "https://www.city.iwamizawa.hokkaido.jp/soshiki/gikai_jimukyoku/iwamizawashigikai/4/3501.html"
    ],
    "reprs_xpath": ""
  },
  "北海道　網走市": {
    "lat": 44.020631,
    "long": 144.273422,
    "building": "網走市役所",
    "address": "網走市南6条東4丁目",
    "urls": [
      "https://www.city.abashiri.hokkaido.jp/070shigikai/020giinsyoukai.html"
    ],
    "reprs_xpath": "//*[@id=\"BoxDetail\"]"
  },
  "北海道　留萌市": {
    "lat": 43.940987,
    "long": 141.637009,
    "building": "留萌市役所",
    "address": "留萌市幸町1-11",
    "urls": ["https://www.e-rumoi.jp/gikai/gik_00008.html"],
    "reprs_xpath": "//*[@id=\"readspeaker\"]/div[2]/table/tbody"
  },
  "北海道　苫小牧市": {
    "lat": 42.634094,
    "long": 141.605503,
    "building": "苫小牧市役所",
    "address": "苫小牧市旭町4-5-6",
    "urls": [
      "https://www.city.tomakomai.hokkaido.jp/gikai/shokai/giinmeibo.html"
    ],
    "reprs_xpath": "//*[@id=\"article\"]/div[1]"
  },
  "北海道　稚内市": {
    "lat": 45.415675,
    "long": 141.673082,
    "building": "稚内市役所",
    "address": "稚内市中央3-13-15",
    "urls": ["https://www.city.wakkanai.hokkaido.jp/gikai/kousei/meibo/"],
    "reprs_xpath": "//*[@id=\"tm_maincontents\"]"
  },
  "北海道　美唄市": {
    "lat": 43.332951,
    "long": 141.853986,
    "building": "美唄市役所",
    "address": "美唄市西3条南1-1-1",
    "urls": ["https://www.city.bibai.hokkaido.jp/site/gikai/1025.html"],
    "reprs_xpath": ""
  },
  "北海道　芦別市": {
    "lat": 43.51821,
    "long": 142.189552,
    "building": "芦別市役所",
    "address": "芦別市北1条東1-3",
    "urls": ["https://www.city.ashibetsu.hokkaido.jp/docs/4944.html"],
    "reprs_xpath": ""
  },
  "北海道　江別市": {
    "lat": 43.103666,
    "long": 141.536103,
    "building": "江別市役所",
    "address": "江別市高砂町6",
    "urls": ["https://www.city.ebetsu.hokkaido.jp/site/gikai/2002.html"],
    "reprs_xpath": "//*[@id=\"main_body\"]/div[1]"
  },
  "北海道　赤平市": {
    "lat": 43.558039,
    "long": 142.044223,
    "building": "赤平市役所",
    "address": "赤平市泉町4-1",
    "urls": ["https://www.city.akabira.hokkaido.jp/docs/2013011700065b.html"],
    "reprs_xpath": ""
  },
  "北海道　紋別市": {
    "lat": 44.356332,
    "long": 143.354279,
    "building": "紋別市役所",
    "address": "紋別市幸町2-1-18",
    "urls": ["https://mombetsu.jp/gikai/member/"],
    "reprs_xpath": "//*[@id=\"content-1\"]/div/div"
  },
  "北海道　士別市": {
    "lat": 44.178182,
    "long": 142.400927,
    "building": "士別市役所",
    "address": "士別市東6条4-1",
    "urls": [
      "https://www.city.shibetsu.lg.jp/soshikikarasagasu/gikaijimukyoku/1514.html"
    ],
    "reprs_xpath": "//*[@id=\"container-in\"]"
  },
  "北海道　名寄市": {
    "lat": 44.355924,
    "long": 142.463134,
    "building": "名寄市役所",
    "address": "名寄市大通南1-1",
    "urls": ["http://www.city.nayoro.lg.jp/assembly/l5o8uj000000003v.html"],
    "reprs_xpath": "//*[@id=\"main\"]"
  },
  "北海道　三笠市": {
    "lat": 43.245622,
    "long": 141.875342,
    "building": "三笠市役所",
    "address": "三笠市幸町2",
    "urls": [
      "https://www.city.mikasa.hokkaido.jp/assembly/detail/00001695.html"
    ],
    "reprs_xpath": ""
  },
  "北海道　根室市": {
    "lat": 43.330036,
    "long": 145.582903,
    "building": "根室市役所",
    "address": "根室市常盤町2-27",
    "urls": [
      "https://www.city.nemuro.hokkaido.jp/lifeinfo/kakuka/gikai/nemuroshigi/giinsyoukai/1432.html"
    ],
    "reprs_xpath": "//*[@id=\"contents-in\"]/div[1]/div"
  },
  "北海道　千歳市": {
    "lat": 42.821124,
    "long": 141.651139,
    "building": "千歳市役所",
    "address": "千歳市東雲町2-34",
    "urls": [
      "https://www.city.chitose.lg.jp/docs/29910.html?cat=%2F94%2F98%2F98_189%2F98_189_1002%2F"
    ],
    "reprs_xpath": ""
  },
  "北海道　滝川市": {
    "lat": 43.557753,
    "long": 141.910371,
    "building": "滝川市役所",
    "address": "滝川市大町1-2-15",
    "urls": [
      "https://www.city.takikawa.hokkaido.jp/270gikai/01gikai/01geiin_meibo/araki.html",
      "https://www.city.takikawa.hokkaido.jp/270gikai/01gikai/01geiin_meibo/anraku.html",
      "https://www.city.takikawa.hokkaido.jp/270gikai/01gikai/01geiin_meibo/ogino.html",
      "https://www.city.takikawa.hokkaido.jp/270gikai/01gikai/01geiin_meibo/kinoshita.html",
      "https://www.city.takikawa.hokkaido.jp/270gikai/01gikai/01geiin_meibo/shibata.html",
      "https://www.city.takikawa.hokkaido.jp/270gikai/01gikai/01geiin_meibo/sekitou.html",
      "https://www.city.takikawa.hokkaido.jp/270gikai/01gikai/01geiin_meibo/takahashi.html",
      "https://www.city.takikawa.hokkaido.jp/270gikai/01gikai/01geiin_meibo/tamura.html",
      "https://www.city.takikawa.hokkaido.jp/270gikai/01gikai/01geiin_meibo/fukui.html",
      "https://www.city.takikawa.hokkaido.jp/270gikai/01gikai/01geiin_meibo/fujita.html",
      "https://www.city.takikawa.hokkaido.jp/270gikai/01gikai/01geiin_meibo/hori.html",
      "https://www.city.takikawa.hokkaido.jp/270gikai/01gikai/01geiin_meibo/mikami2.html",
      "https://www.city.takikawa.hokkaido.jp/270gikai/01gikai/01geiin_meibo/yamaguti.html",
      "https://www.city.takikawa.hokkaido.jp/270gikai/01gikai/01geiin_meibo/yamamoto.html",
      "https://www.city.takikawa.hokkaido.jp/270gikai/01gikai/01geiin_meibo/yoshikawa.html",
      "https://www.city.takikawa.hokkaido.jp/270gikai/01gikai/01geiin_meibo/yosetani.html"
    ],
    "reprs_xpath": "//*[@id=\"content\"]"
  },
  "北海道　砂川市": {
    "lat": 43.494329,
    "long": 141.902525,
    "building": "砂川市役所",
    "address": "砂川市西6条北2丁目1-1",
    "urls": [
      "https://www.city.sunagawa.hokkaido.jp/shisei/shigikai/2019meibo.html"
    ],
    "reprs_xpath": "//*[@id=\"content\"]/table/tbody"
  },
  "北海道　歌志内市": {
    "lat": 43.521682,
    "long": 142.035353,
    "building": "歌志内市役所",
    "address": "歌志内市字本町5",
    "urls": [
      "https://www.city.utashinai.hokkaido.jp/hotnews/detail/00003807.html"
    ],
    "reprs_xpath": "//*[@id=\"page_maincontents\"]/table/tbody"
  },
  "北海道　深川市": {
    "lat": 43.723184,
    "long": 142.053528,
    "building": "深川市役所",
    "address": "深川市2条17-17",
    "urls": [
      "",
      "https://www.city.fukagawa.lg.jp/gikai/giin/i1r7hk00000002z9.html"
    ],
    "reprs_xpath": "//*[@id=\"main\"]/div"
  },
  "北海道　富良野市": {
    "lat": 43.342354,
    "long": 142.383405,
    "building": "富良野市役所",
    "address": "富良野市弥生町1-1",
    "urls": ["https://www.city.furano.hokkaido.jp/shigikai/docs/9307.html", ""],
    "reprs_xpath": "//*[@id=\"main\"]/div/article/div[2]/table"
  },
  "北海道　登別市": {
    "lat": 42.412735,
    "long": 141.106556,
    "building": "登別市役所",
    "address": "登別市中央町6-11",
    "urls": [
      "https://www.noboribetsu-shigikai.org/%E8%AD%B0%E5%93%A1%E3%81%AE%E7%B4%B9%E4%BB%8B-1/%E6%AD%B4%E4%BB%A3%E8%AD%B0%E9%95%B7-%E5%89%AF%E8%AD%B0%E9%95%B7/%E8%B6%B3%E7%AB%8B%E7%9F%A5%E4%B9%9F/",
      "https://www.noboribetsu-shigikai.org/%E8%AD%B0%E5%93%A1%E3%81%AE%E7%B4%B9%E4%BB%8B-1/%E6%AD%B4%E4%BB%A3%E8%AD%B0%E9%95%B7-%E5%89%AF%E8%AD%B0%E9%95%B7/%E4%BC%8A%E8%97%A4%E5%81%A5%E5%A4%AA/",
      "https://www.noboribetsu-shigikai.org/%E8%AD%B0%E5%93%A1%E3%81%AE%E7%B4%B9%E4%BB%8B-1/%E6%AD%B4%E4%BB%A3%E8%AD%B0%E9%95%B7-%E5%89%AF%E8%AD%B0%E9%95%B7/%E4%BA%95%E9%87%8E%E6%AD%A3%E8%87%A3/",
      "https://www.noboribetsu-shigikai.org/%E8%AD%B0%E5%93%A1%E3%81%AE%E7%B4%B9%E4%BB%8B-1/%E6%AD%B4%E4%BB%A3%E8%AD%B0%E9%95%B7-%E5%89%AF%E8%AD%B0%E9%95%B7/%E5%B2%A9%E7%94%B0%E6%81%B5/",
      "https://www.noboribetsu-shigikai.org/%E8%AD%B0%E5%93%A1%E3%81%AE%E7%B4%B9%E4%BB%8B-1/%E6%AD%B4%E4%BB%A3%E8%AD%B0%E9%95%B7-%E5%89%AF%E8%AD%B0%E9%95%B7/%E5%B0%8F%E6%A0%97%E7%BE%A9%E6%9C%97/",
      "https://www.noboribetsu-shigikai.org/%E8%AD%B0%E5%93%A1%E3%81%AE%E7%B4%B9%E4%BB%8B-1/%E6%AD%B4%E4%BB%A3%E8%AD%B0%E9%95%B7-%E5%89%AF%E8%AD%B0%E9%95%B7/%E9%87%91%E6%BE%A4%E5%89%87%E7%94%B7/",
      "https://www.noboribetsu-shigikai.org/%E8%AD%B0%E5%93%A1%E3%81%AE%E7%B4%B9%E4%BB%8B-1/%E6%AD%B4%E4%BB%A3%E8%AD%B0%E9%95%B7-%E5%89%AF%E8%AD%B0%E9%95%B7/%E5%B7%A5%E8%97%A4%E5%80%B6%E4%BA%8C%E9%9B%84/",
      "https://www.noboribetsu-shigikai.org/%E8%AD%B0%E5%93%A1%E3%81%AE%E7%B4%B9%E4%BB%8B-1/%E6%AD%B4%E4%BB%A3%E8%AD%B0%E9%95%B7-%E5%89%AF%E8%AD%B0%E9%95%B7/%E4%BB%8A%E9%87%8E%E5%B9%B9%E5%A4%A7/",
      "https://www.noboribetsu-shigikai.org/%E8%AD%B0%E5%93%A1%E3%81%AE%E7%B4%B9%E4%BB%8B-1/%E6%AD%B4%E4%BB%A3%E8%AD%B0%E9%95%B7-%E5%89%AF%E8%AD%B0%E9%95%B7/%E4%BD%90%E3%80%85%E6%9C%A8%E4%B9%85%E7%BE%8E%E5%AD%90/",
      "https://www.noboribetsu-shigikai.org/%E8%AD%B0%E5%93%A1%E3%81%AE%E7%B4%B9%E4%BB%8B-1/%E6%AD%B4%E4%BB%A3%E8%AD%B0%E9%95%B7-%E5%89%AF%E8%AD%B0%E9%95%B7/%E6%9D%89%E5%B0%BE%E7%9B%B4%E6%A8%B9/",
      "https://www.noboribetsu-shigikai.org/%E8%AD%B0%E5%93%A1%E3%81%AE%E7%B4%B9%E4%BB%8B-1/%E6%AD%B4%E4%BB%A3%E8%AD%B0%E9%95%B7-%E5%89%AF%E8%AD%B0%E9%95%B7/%E7%94%B0%E4%B8%AD%E5%AF%9B%E5%BF%97/",
      "https://www.noboribetsu-shigikai.org/%E8%AD%B0%E5%93%A1%E3%81%AE%E7%B4%B9%E4%BB%8B-1/%E6%AD%B4%E4%BB%A3%E8%AD%B0%E9%95%B7-%E5%89%AF%E8%AD%B0%E9%95%B7/%E5%8D%83%E7%94%B0%E6%96%87%E5%AD%9D/",
      "https://www.noboribetsu-shigikai.org/%E8%AD%B0%E5%93%A1%E3%81%AE%E7%B4%B9%E4%BB%8B-1/%E6%AD%B4%E4%BB%A3%E8%AD%B0%E9%95%B7-%E5%89%AF%E8%AD%B0%E9%95%B7/%E8%BE%BB%E5%BC%98%E4%B9%8B/",
      "https://www.noboribetsu-shigikai.org/%E8%AD%B0%E5%93%A1%E3%81%AE%E7%B4%B9%E4%BB%8B-1/%E6%AD%B4%E4%BB%A3%E8%AD%B0%E9%95%B7-%E5%89%AF%E8%AD%B0%E9%95%B7/%E5%A4%A9%E7%A5%9E%E6%9E%97%E7%BE%8E%E5%BD%A6/",
      "https://www.noboribetsu-shigikai.org/%E8%AD%B0%E5%93%A1%E3%81%AE%E7%B4%B9%E4%BB%8B-1/%E6%AD%B4%E4%BB%A3%E8%AD%B0%E9%95%B7-%E5%89%AF%E8%AD%B0%E9%95%B7/%E6%88%B8%E4%BA%95%E8%82%87/",
      "https://www.noboribetsu-shigikai.org/%E8%AD%B0%E5%93%A1%E3%81%AE%E7%B4%B9%E4%BB%8B-1/%E6%AD%B4%E4%BB%A3%E8%AD%B0%E9%95%B7-%E5%89%AF%E8%AD%B0%E9%95%B7/%E6%88%90%E7%94%B0%E6%98%AD%E6%B5%A9/",
      "https://www.noboribetsu-shigikai.org/%E8%AD%B0%E5%93%A1%E3%81%AE%E7%B4%B9%E4%BB%8B-1/%E6%AD%B4%E4%BB%A3%E8%AD%B0%E9%95%B7-%E5%89%AF%E8%AD%B0%E9%95%B7/%E5%AE%AE%E6%AD%A6%E7%A5%A5%E5%AD%90/",
      "https://www.noboribetsu-shigikai.org/%E8%AD%B0%E5%93%A1%E3%81%AE%E7%B4%B9%E4%BB%8B-1/%E6%AD%B4%E4%BB%A3%E8%AD%B0%E9%95%B7-%E5%89%AF%E8%AD%B0%E9%95%B7/%E6%9D%91%E4%BA%95%E5%AF%BF%E8%A1%8C/",
      "https://www.noboribetsu-shigikai.org/%E8%AD%B0%E5%93%A1%E3%81%AE%E7%B4%B9%E4%BB%8B-1/%E6%AD%B4%E4%BB%A3%E8%AD%B0%E9%95%B7-%E5%89%AF%E8%AD%B0%E9%95%B7/%E8%8B%A5%E6%9C%A8%E5%BA%B7%E5%A4%AB/"
    ],
    "reprs_xpath": "//*[@id=\"content_area\"]"
  },
  "北海道　恵庭市": {
    "lat": 42.882592,
    "long": 141.577799,
    "building": "恵庭市役所",
    "address": "恵庭市京町1",
    "urls": [
      "https://www.city.eniwa.hokkaido.jp/kurashi/shiseijoho/shigikai/giinnsyoukai/12049.html"
    ],
    "reprs_xpath": ""
  },
  "北海道　伊達市": {
    "lat": 42.471898,
    "long": 140.864702,
    "building": "伊達市役所",
    "address": "伊達市鹿島町20-1",
    "urls": ["https://www.city.date.hokkaido.jp/gikai/detail/00000748.html"],
    "reprs_xpath": "//*[@id=\"article\"]/div[3]"
  },
  "北海道　北広島市": {
    "lat": 42.985663,
    "long": 141.563625,
    "building": "北広島市役所",
    "address": "北広島市中央4-2-1",
    "urls": [
      "https://www.city.kitahiroshima.hokkaido.jp/hotnews/detail/00120977.html"
    ],
    "reprs_xpath": ""
  },
  "北海道　石狩市": {
    "lat": 43.171365,
    "long": 141.315514,
    "building": "石狩市役所",
    "address": "石狩市花川北6条1-30-2",
    "urls": ["https://www.city.ishikari.hokkaido.jp/soshiki/gikai/3118.html"],
    "reprs_xpath": "//*[@id=\"main_body\"]/div[1]"
  },
  "北海道　北斗市": {
    "lat": 41.824174,
    "long": 140.653067,
    "building": "北斗市役所",
    "address": "北斗市中央1-3-10",
    "urls": ["https://www.city.hokuto.hokkaido.jp/docs/4592.html"],
    "reprs_xpath": "//*[@id=\"main\"]/article"
  },
  "北海道　当別町": {
    "lat": 43.223637,
    "long": 141.517003,
    "building": "当別町役場",
    "address": "石狩郡当別町白樺町58-9",
    "urls": ["https://www.town.tobetsu.hokkaido.jp/site/gikai/541.html"],
    "reprs_xpath": "//*[@id=\"main_body\"]/div[2]"
  },
  "北海道　新篠津村": {
    "lat": 43.225368,
    "long": 141.649247,
    "building": "新篠津村役場",
    "address": "石狩郡新篠津村第47線北13",
    "urls": [
      "https://www.vill.shinshinotsu.hokkaido.jp/hotnews/detail/00000287.html"
    ],
    "reprs_xpath": ""
  },
  "北海道　松前町": {
    "lat": 41.429981,
    "long": 140.110403,
    "building": "松前町役場",
    "address": "松前郡松前町字福山248番地1",
    "urls": [
      "https://www.town.matsumae.hokkaido.jp/hotnews/detail_sp/00000542.html"
    ],
    "reprs_xpath": ""
  },
  "北海道　福島町": {
    "lat": 41.483783,
    "long": 140.251315,
    "building": "福島町役場",
    "address": "松前郡福島町字福島820",
    "urls": [
      "http://www.town.fukushima.hokkaido.jp/%E7%94%BA%E6%94%BF%E6%83%85%E5%A0%B1/%E7%94%BA%E5%8B%A2%E8%A6%81%E8%A6%A7/%E8%A1%8C%E6%94%BF%E8%AD%B0%E4%BC%9A/"
    ],
    "reprs_xpath": ""
  },
  "北海道　知内町": {
    "lat": 41.598377,
    "long": 140.418861,
    "building": "知内町役場",
    "address": "上磯郡知内町字重内21-1",
    "urls": ["https://www.town.shiriuchi.hokkaido.jp/chosei/gikai/meibo.html"],
    "reprs_xpath": "//*[@id=\"article\"]"
  },
  "北海道　木古内町": {
    "lat": 41.678332,
    "long": 140.437635,
    "building": "木古内町役場",
    "address": "上磯郡木古内町字本町218",
    "urls": ["https://www.town.kikonai.hokkaido.jp/gikai/meibo.html"],
    "reprs_xpath": "//*[@id=\"article\"]"
  },
  "北海道　七飯町": {
    "lat": 41.895711,
    "long": 140.694405,
    "building": "七飯町役場",
    "address": "亀田郡七飯町本町6丁目1-1",
    "urls": ["https://www.town.nanae.hokkaido.jp/hotnews/detail/00013109.html"],
    "reprs_xpath": "//*[@id=\"page_maincontents\"]"
  },
  "北海道　鹿部町": {
    "lat": 42.026639,
    "long": 140.831672,
    "building": "鹿部町役場",
    "address": "茅部郡鹿部町字鹿部252-1",
    "urls": [
      "https://www.town.shikabe.lg.jp/soshiki/gikai_jimu/gyomu/1/545.html"
    ],
    "reprs_xpath": "//*[@id=\"contents-in\"]/div[1]/div/div"
  },
  "北海道　森町": {
    "lat": 42.104992,
    "long": 140.576446,
    "building": "森町役場",
    "address": "茅部郡森町字御幸町144-1",
    "urls": ["https://www.town.hokkaido-mori.lg.jp/docs/2023050200020/"],
    "reprs_xpath": ""
  },
  "北海道　八雲町": {
    "lat": 42.255918,
    "long": 140.265224,
    "building": "八雲町役場",
    "address": "二海郡八雲町住初町138",
    "urls": ["https://www.town.yakumo.lg.jp/site/gikai/content0850.html"],
    "reprs_xpath": "//*[@id=\"main_body\"]"
  },
  "北海道　長万部町": {
    "lat": 42.513488,
    "long": 140.380344,
    "building": "長万部町役場",
    "address": "山越郡長万部町字長万部453-1",
    "urls": ["https://www.town.oshamambe.lg.jp/site/gikai/137.html"],
    "reprs_xpath": "//*[@id=\"main_body\"]/div[2]"
  },
  "北海道　江差町": {
    "lat": 41.869244,
    "long": 140.12756,
    "building": "江差町役場",
    "address": "檜山郡江差町字中歌町193-1",
    "urls": ["https://www.hokkaido-esashi.jp/gikai/meibo/itiran.html"],
    "reprs_xpath": "/html/body/div[2]/table/tbody/tr/td"
  },
  "北海道　上ノ国町": {
    "lat": 41.801042,
    "long": 140.121398,
    "building": "上ノ国町役場",
    "address": "檜山郡上ノ国町字大留100",
    "urls": ["http://www.town.kaminokuni.lg.jp/hotnews/detail/00000522.html"],
    "reprs_xpath": "//*[@id=\"main_area_page\"]/table[1]/tbody"
  },
  "北海道　厚沢部町": {
    "lat": 41.920895,
    "long": 140.225475,
    "building": "厚沢部町役場",
    "address": "檜山郡厚沢部町新町207",
    "urls": ["https://www.town.assabu.lg.jp/site/gikai/1504.html"],
    "reprs_xpath": ""
  },
  "北海道　乙部町": {
    "lat": 41.968504,
    "long": 140.13546,
    "building": "乙部町役場",
    "address": "爾志郡乙部町字緑町388",
    "urls": [
      "https://www.town.otobe.lg.jp/section/gikai/e0taal0000000v31-att/e0taal0000000v4l.pdf"
    ],
    "reprs_xpath": ""
  },
  "北海道　奥尻町": {
    "lat": 42.17226,
    "long": 139.514121,
    "building": "奥尻町役場",
    "address": "奥尻郡奥尻町字奥尻806",
    "urls": [
      "https://www.town.okushiri.lg.jp/hotnews/files/00001500/00001537/%E8%AD%B0%E4%BC%9A%E6%A7%8B%E6%88%90(R5.5.11).pdf"
    ],
    "reprs_xpath": ""
  },
  "北海道　今金町": {
    "lat": 42.429373,
    "long": 140.008766,
    "building": "今金町役場",
    "address": "瀬棚郡今金町字今金48-1",
    "urls": [
      "https://www.town.imakane.lg.jp/ass/giin/",
      "//*[@id=\"main\"]/div[2]/div/ul"
    ],
    "reprs_xpath": ""
  },
  "北海道　せたな町": {
    "lat": 42.417145,
    "long": 139.882999,
    "building": "せたな町役場",
    "address": "久遠郡せたな町北檜山区徳島63-1",
    "urls": [
      "https://www.town.setana.lg.jp/gikai/%E8%AD%B0%E5%93%A1%E5%90%8D%E7%B0%BF.pdf"
    ],
    "reprs_xpath": ""
  },
  "北海道　島牧村": {
    "lat": 42.700471,
    "long": 140.061454,
    "building": "島牧村役場",
    "address": "島牧郡島牧村字泊83-1",
    "urls": [
      "https://www.vill.shimamaki.lg.jp/category/detail.php?category=administration&content=69"
    ],
    "reprs_xpath": "//*[@id=\"content-1\"]/table/tbody"
  },
  "北海道　寿都町": {
    "lat": 42.790984,
    "long": 140.228891,
    "building": "寿都町役場",
    "address": "寿都郡寿都町字渡島町140-1",
    "urls": ["http://www.town.suttu.lg.jp/town/detail.php?id=61"],
    "reprs_xpath": ""
  },
  "北海道　黒松内町": {
    "lat": 42.667788,
    "long": 140.307739,
    "building": "黒松内町役場",
    "address": "寿都郡黒松内町字黒松内302-1",
    "urls": ["http://www.kuromatsunai.com/town/meibo_r1.pdf"],
    "reprs_xpath": ""
  },
  "北海道　蘭越町": {
    "lat": 42.809205,
    "long": 140.528346,
    "building": "蘭越町役場",
    "address": "磯谷郡蘭越町蘭越町258-5",
    "urls": [
      "https://www.town.rankoshi.hokkaido.jp/administration/town/detail.html?content=130"
    ],
    "reprs_xpath": ""
  },
  "北海道　ニセコ町": {
    "lat": 42.805029,
    "long": 140.687991,
    "building": "ニセコ町役場",
    "address": "虻田郡ニセコ町字富士見55番地",
    "urls": ["https://www.town.niseko.lg.jp/chosei/gikai/meibo/"],
    "reprs_xpath": "//*[@id=\"paragraph6436\"]"
  },
  "北海道　真狩村": {
    "lat": 42.762955,
    "long": 140.803669,
    "building": "真狩村役場",
    "address": "虻田郡真狩村字真狩118",
    "urls": ["https://www.vill.makkari.lg.jp/songikai/ginnshokai/"],
    "reprs_xpath": "//*[@id=\"article\"]"
  },
  "北海道　留寿都村": {
    "lat": 42.737263,
    "long": 140.875574,
    "building": "留寿都村役場",
    "address": "虻田郡留寿都村字留寿都175",
    "urls": ["https://www.vill.rusutsu.lg.jp/hotnews/detail/00002269.html"],
    "reprs_xpath": "//*[@id=\"article\"]"
  },
  "北海道　喜茂別町": {
    "lat": 42.795439,
    "long": 140.934532,
    "building": "喜茂別町役場",
    "address": "虻田郡喜茂別町字喜茂別123",
    "urls": [
      "https://www.town.kimobetsu.hokkaido.jp/town/detail.php?content=108"
    ],
    "reprs_xpath": "//*[@id=\"top\"]/article/div[3]/div/div/div[1]"
  },
  "北海道　京極町": {
    "lat": 42.858216,
    "long": 140.883999,
    "building": "京極町役場",
    "address": "虻田郡京極町字京極527",
    "urls": ["https://www.town-kyogoku.jp/gikai/soshikikousei/"],
    "reprs_xpath": "//*[@id=\"paragraph705\"]/div/table"
  },
  "北海道　倶知安町": {
    "lat": 42.901458,
    "long": 140.759012,
    "building": "倶知安町役場",
    "address": "虻田郡倶知安町北1条東3-3",
    "urls": ["https://www.town.kutchan.hokkaido.jp/gikai/shikumi/syoukai/"],
    "reprs_xpath": "//*[@id=\"article\"]/div"
  },
  "北海道　共和町": {
    "lat": 42.980407,
    "long": 140.611175,
    "building": "共和町役場",
    "address": "岩内郡共和町南幌似38-2",
    "urls": [],
    "reprs_xpath": ""
  },
  "北海道　岩内町": {
    "lat": 42.979761,
    "long": 140.514773,
    "building": "岩内町役場",
    "address": "岩内郡岩内町字高台134-1",
    "urls": ["https://www.town.iwanai.hokkaido.jp/?page_id=4736"],
    "reprs_xpath": "//*[@id=\"tablepress-295\"]"
  },
  "北海道　泊村": {
    "lat": 43.063212,
    "long": 140.498857,
    "building": "泊村役場",
    "address": "古宇郡泊村大字茅沼村字臼別191-7",
    "urls": [],
    "reprs_xpath": ""
  },
  "北海道　神恵内村": {
    "lat": 43.143365,
    "long": 140.430801,
    "building": "神恵内村役場",
    "address": "古宇郡神恵内村大字神恵内村81-20",
    "urls": [
      "https://www.vill.kamoenai.hokkaido.jp/hotnews/files/00000900/00000902/giinr5.5.9.pdf"
    ],
    "reprs_xpath": ""
  },
  "北海道　積丹町": {
    "lat": 43.29871,
    "long": 140.598001,
    "building": "積丹町役場",
    "address": "積丹郡積丹町大字美国町字船澗48-5",
    "urls": [
      "https://www.town.shakotan.lg.jp/contents/0d6aa15253ff8a9861a033bf630f1542a8077ab6.pdf"
    ],
    "reprs_xpath": ""
  },
  "北海道　古平町": {
    "lat": 43.265353,
    "long": 140.639078,
    "building": "古平町役場",
    "address": "古平郡古平町大字浜町50番地",
    "urls": ["http://www.town.furubira.lg.jp/town/detail.php?id=56"],
    "reprs_xpath": ""
  },
  "北海道　仁木町": {
    "lat": 43.151675,
    "long": 140.766168,
    "building": "仁木町役場",
    "address": "余市郡仁木町西町1-36-1",
    "urls": [
      "https://www.town.niki.hokkaido.jp/section/gikai/irv97600000004ny.html"
    ],
    "reprs_xpath": "//section"
  },
  "北海道　余市町": {
    "lat": 43.195343,
    "long": 140.783542,
    "building": "余市町役場",
    "address": "余市郡余市町朝日町26",
    "urls": [
      "https://www.town.yoichi.hokkaido.jp/gikai/gikaikosei/giinsyokai.html"
    ],
    "reprs_xpath": "/html/body/center/table/tbody"
  },
  "北海道　赤井川村": {
    "lat": 43.083479,
    "long": 140.81364,
    "building": "赤井川村役場",
    "address": "余市郡赤井川村字赤井川74-2",
    "urls": ["https://www.akaigawa.com/kurashi/gikai_jimukyoku/index71.html"],
    "reprs_xpath": "//*[@id=\"page-content\"]/div/div"
  },
  "北海道　南幌町": {
    "lat": 43.063739,
    "long": 141.65033,
    "building": "南幌町役場",
    "address": "空知郡南幌町栄町3-2-1",
    "urls": [
      "https://www.town.nanporo.hokkaido.jp/files/2023/05/%EF%BC%88HP%E7%94%A8%EF%BC%89R5.4.28%E8%AD%B0%E4%BC%9A%E8%AD%B0%E5%93%A1%E5%90%8D%E7%B0%BF%E3%83%BB%E8%AD%B0%E4%BC%9A%E6%A7%8B%E6%88%90%E4%B8%80%E8%A6%A7.pdf"
    ],
    "reprs_xpath": ""
  },
  "北海道　奈井江町": {
    "lat": 43.425353,
    "long": 141.882816,
    "building": "奈井江町役場",
    "address": "空知郡奈井江町字奈井江11",
    "urls": ["https://www.town.naie.hokkaido.jp/gikai/g_meibo/"],
    "reprs_xpath": "//*[@id=\"paragraph6315\"]/table"
  },
  "北海道　上砂川町": {
    "lat": 43.48271,
    "long": 141.984202,
    "building": "上砂川町役場",
    "address": "空知郡上砂川町中央北1条5丁目1番7号",
    "urls": [
      "https://town.kamisunagawa.hokkaido.jp/soshiki/gikai_jimukyoku/meibo/meibo.html"
    ],
    "reprs_xpath": "//*[@id=\"contents-in\"]/div[1]/div/div/div/table"
  },
  "北海道　由仁町": {
    "lat": 42.999598,
    "long": 141.790309,
    "building": "由仁町役場",
    "address": "夕張郡由仁町新光200",
    "urls": ["https://www.town.yuni.lg.jp/chosei/gikai/giin-meibo"],
    "reprs_xpath": "//*[@id=\"giin-meibo\"]/main/div[2]/div[1]/article/section/div/figure[1]/table"
  },
  "北海道　長沼町": {
    "lat": 43.01034,
    "long": 141.695367,
    "building": "長沼町役場",
    "address": "夕張郡長沼町中央北1-1-1",
    "urls": ["https://www.maoi-net.jp/gikai/giimmeibo/giinmeibo2.html"],
    "reprs_xpath": "//*[@id=\"page_maincontents\"]"
  },
  "北海道　栗山町": {
    "lat": 43.05629,
    "long": 141.784099,
    "building": "栗山町役場",
    "address": "夕張郡栗山町松風3-252",
    "urls": ["https://www.town.kuriyama.hokkaido.jp/site/gikai/281.html"],
    "reprs_xpath": "//*[@id=\"main_body\"]/div[1]"
  },
  "北海道　月形町": {
    "lat": 43.338397,
    "long": 141.669604,
    "building": "月形町役場",
    "address": "樺戸郡月形町1219",
    "urls": ["http://www.town.tsukigata.hokkaido.jp/1108.htm"],
    "reprs_xpath": "//*[@id=\"ContentPane\"]/div[3]/div/table"
  },
  "北海道　浦臼町": {
    "lat": 43.430363,
    "long": 141.818727,
    "building": "浦臼町役場",
    "address": "樺戸郡浦臼町字ウラウスナイ183-15",
    "urls": ["https://www.town.urausu.hokkaido.jp/gyousei/gikai/meibo.html"],
    "reprs_xpath": "//*[@id=\"maincontent\"]/div[2]/div/table"
  },
  "北海道　新十津川町": {
    "lat": 43.548781,
    "long": 141.877126,
    "building": "新十津川町役場",
    "address": "樺戸郡新十津川町字中央301-1",
    "urls": [
      "https://www.town.shintotsukawa.lg.jp/hotnews/detail/00000604.html"
    ],
    "reprs_xpath": "//*[@id=\"article\"]/table/tbody"
  },
  "北海道　妹背牛町": {
    "lat": 43.700093,
    "long": 141.961606,
    "building": "妹背牛町役場",
    "address": "雨竜郡妹背牛町字妹背牛5200",
    "urls": [
      "https://www.town.moseushi.hokkaido.jp/gikai/aramashi/soshiki_kousei.html"
    ],
    "reprs_xpath": "//*[@id=\"main\"]/div/div[1]/div[1]/div/table/tbody"
  },
  "北海道　秩父別町": {
    "lat": 43.767,
    "long": 141.957896,
    "building": "秩父別町役場",
    "address": "雨竜郡秩父別町4101",
    "urls": [
      "https://www.town.chippubetsu.hokkaido.jp/common/img/content/content_20230822_090133.pdf"
    ],
    "reprs_xpath": ""
  },
  "北海道　雨竜町": {
    "lat": 43.643943,
    "long": 141.889036,
    "building": "雨竜町役場",
    "address": "雨竜郡雨竜町字フシコウリウ104",
    "urls": ["https://www.town.uryu.hokkaido.jp/fs/9/5/8/1/_/1854.pdf"],
    "reprs_xpath": ""
  },
  "北海道　北竜町": {
    "lat": 43.731426,
    "long": 141.879409,
    "building": "北竜町役場",
    "address": "雨竜郡北竜町字和11-1",
    "urls": ["http://www.town.hokuryu.hokkaido.jp/content/kurashi48.php"],
    "reprs_xpath": "//*[@id=\"center2\"]/table/tbody"
  },
  "北海道　沼田町": {
    "lat": 43.80674,
    "long": 141.933817,
    "building": "沼田町役場",
    "address": "雨竜郡沼田町南1条3-6-53",
    "urls": [
      "https://www.town.numata.hokkaido.jp/section/gikai/ujj7s300000013t6.html"
    ],
    "reprs_xpath": "//*[@id=\"s0\"]"
  },
  "北海道　鷹栖町": {
    "lat": 43.843321,
    "long": 142.354382,
    "building": "鷹栖町役場",
    "address": "上川郡鷹栖町南1条3丁目5番1号",
    "urls": [
      "https://www.town.takasu.hokkaido.jp/gyosei/administration/detail.html?content=521"
    ],
    "reprs_xpath": "/html/body/div[1]/div[2]/div/div[1]/main/div/div[2]"
  },
  "北海道　東神楽町": {
    "lat": 43.696303,
    "long": 142.451571,
    "building": "東神楽町役場",
    "address": "上川郡東神楽町南1条西1丁目3-2",
    "urls": [
      "https://www.town.higashikagura.lg.jp/docs/373.html",
      "//*[@id=\"contents\"]/main/div/article/div/table"
    ],
    "reprs_xpath": "//*[@id=\"contents\"]/main/div/article/div/table"
  },
  "北海道　当麻町": {
    "lat": 43.828201,
    "long": 142.508388,
    "building": "当麻町役場",
    "address": "上川郡当麻町3条東2丁目11-1",
    "urls": [
      "http://town.tohma.hokkaido.jp/file/contents/111/13585/gikaimeibo.pdf"
    ],
    "reprs_xpath": ""
  },
  "北海道　比布町": {
    "lat": 43.875021,
    "long": 142.477699,
    "building": "比布町役場",
    "address": "上川郡比布町北町1-2-1",
    "urls": [
      "https://www.town.pippu.hokkaido.jp/cms/section/gikai/i9kb6d0000003ccr.html"
    ],
    "reprs_xpath": "//*[@id=\"mainText\"]"
  },
  "北海道　愛別町": {
    "lat": 43.906679,
    "long": 142.577822,
    "building": "愛別町役場",
    "address": "上川郡愛別町字本町179",
    "urls": [
      "https://www.town.aibetsu.hokkaido.jp/05/02/02/199",
      "https://www.town.aibetsu.hokkaido.jp/05/02/02/194",
      "https://www.town.aibetsu.hokkaido.jp/05/02/02/200",
      "https://www.town.aibetsu.hokkaido.jp/05/02/02/195",
      "https://www.town.aibetsu.hokkaido.jp/05/02/02/193",
      "https://www.town.aibetsu.hokkaido.jp/05/02/02/192",
      "https://www.town.aibetsu.hokkaido.jp/05/02/02/196",
      "https://www.town.aibetsu.hokkaido.jp/05/02/02/198",
      "https://www.town.aibetsu.hokkaido.jp/05/02/02/197"
    ],
    "reprs_xpath": "//*[@id=\"block-bootstrap-barrio-subtheme-custom-content\"]/div/div"
  },
  "北海道　上川町": {
    "lat": 43.847128,
    "long": 142.770459,
    "building": "上川町役場",
    "address": "上川郡上川町南町180",
    "urls": [
      "https://www.town.hokkaido-kamikawa.lg.jp/section/gikai/chs8120000000z5g.html"
    ],
    "reprs_xpath": "//*[@id=\"s0\"]"
  },
  "北海道　東川町": {
    "lat": 43.698877,
    "long": 142.510128,
    "building": "東川町役場",
    "address": "上川郡東川町東町1-16-1",
    "urls": ["https://higashikawa-town.jp/portal/machi/panel/90"],
    "reprs_xpath": "//*[@id=\"wrapper\"]/main/section/article"
  },
  "北海道　美瑛町": {
    "lat": 43.588279,
    "long": 142.467055,
    "building": "美瑛町役場",
    "address": "上川郡美瑛町本町4-6-1",
    "urls": [
      "https://town.biei.hokkaido.jp/administration/parliament/meibo.html"
    ],
    "reprs_xpath": "//*[@id=\"article\"]/table"
  },
  "北海道　上富良野町": {
    "lat": 43.455614,
    "long": 142.467112,
    "building": "上富良野町役場",
    "address": "空知郡上富良野町大町2-2-11",
    "urls": ["http://www.town.kamifurano.hokkaido.jp/index.php?id=46"],
    "reprs_xpath": "//*[@id=\"wrapper\"]/div[4]/div[2]/div[2]/table/tbody"
  },
  "北海道　中富良野町": {
    "lat": 43.405576,
    "long": 142.425034,
    "building": "中富良野町役場",
    "address": "空知郡中富良野町本町9-1",
    "urls": ["https://www.town.nakafurano.lg.jp/hotnews/detail/00000135.html"],
    "reprs_xpath": "//*[@id=\"page_maincontents\"]/div[2]/table"
  },
  "北海道　南富良野町": {
    "lat": 43.164088,
    "long": 142.568522,
    "building": "南富良野町役場",
    "address": "空知郡南富良野町字幾寅867",
    "urls": [
      "https://www.town.minamifurano.hokkaido.jp/gikai/%E8%AD%B0%E4%BC%9A%E5%AF%A9%E8%AD%B0%E3%81%AB%E3%81%A4%E3%81%84%E3%81%A6/",
      "//*[@id=\"tablepress-16\"]"
    ],
    "reprs_xpath": ""
  },
  "北海道　占冠村": {
    "lat": 42.979836,
    "long": 142.398526,
    "building": "占冠村役場",
    "address": "勇払郡占冠村字中央",
    "urls": [
      "https://www.vill.shimukappu.lg.jp/shimukappu/section/gikai/nmudtq00000051vy.html"
    ],
    "reprs_xpath": "//*[@id=\"s1\"]/div[1]/div/table"
  },
  "北海道　和寒町": {
    "lat": 44.023119,
    "long": 142.413383,
    "building": "和寒町役場",
    "address": "上川郡和寒町字西町120",
    "urls": [
      "https://www.town.wassamu.hokkaido.jp/congress-secretariat/member-introduction/"
    ],
    "reprs_xpath": "//*[@id=\"column-alpha\"]/div/div/table"
  },
  "北海道　剣淵町": {
    "lat": 44.095746,
    "long": 142.361007,
    "building": "剣淵町役場",
    "address": "上川郡剣淵町仲町37-1",
    "urls": [
      "https://www.town.kembuchi.hokkaido.jp/gikai/%E7%94%BA%E8%AD%B0%E4%BC%9A/"
    ],
    "reprs_xpath": "//*[@id=\"content\"]/table/tbody"
  },
  "北海道　下川町": {
    "lat": 44.302576,
    "long": 142.635219,
    "building": "下川町役場",
    "address": "上川郡下川町幸町63",
    "urls": [
      "https://www.town.shimokawa.hokkaido.jp/section/2023/05/post-139.html",
      "//*[@id=\"content\"]"
    ],
    "reprs_xpath": ""
  },
  "北海道　美深町": {
    "lat": 44.480994,
    "long": 142.342963,
    "building": "美深町役場",
    "address": "中川郡美深町字西町18",
    "urls": [
      "http://www.town.bifuka.hokkaido.jp/cms/section/gikai/qlmcaj0000004uny.html"
    ],
    "reprs_xpath": "//*[@id=\"mainText\"]"
  },
  "北海道　音威子府村": {
    "lat": 44.725096,
    "long": 142.262458,
    "building": "音威子府村役場",
    "address": "中川郡音威子府村字音威子府444-1",
    "urls": [],
    "reprs_xpath": ""
  },
  "北海道　中川町": {
    "lat": 44.811488,
    "long": 142.071409,
    "building": "中川町役場",
    "address": "中川郡中川町字中川337",
    "urls": [],
    "reprs_xpath": ""
  },
  "北海道　幌加内町": {
    "lat": 44.009812,
    "long": 142.153828,
    "building": "幌加内町役場",
    "address": "雨竜郡幌加内町字幌加内4699",
    "urls": ["https://www.town.horokanai.hokkaido.jp/gikai/giinlist"],
    "reprs_xpath": "//*[@id=\"post-archive-list\"]/div"
  },
  "北海道　増毛町": {
    "lat": 43.856063,
    "long": 141.524978,
    "building": "増毛町役場",
    "address": "増毛郡増毛町弁天町3-61",
    "urls": [
      "https://www.town.mashike.hokkaido.jp/division/gikai/gikaikosei.html"
    ],
    "reprs_xpath": "//*[@id=\"container\"]/section[2]/div/table/tbody"
  },
  "北海道　小平町": {
    "lat": 44.015141,
    "long": 141.662828,
    "building": "小平町役場",
    "address": "留萌郡小平町字小平町216",
    "urls": [
      "https://www.town.obira.hokkaido.jp/hotnews/detail_sp/00001210.html"
    ],
    "reprs_xpath": "//*[@id=\"article\"]/table/tbody"
  },
  "北海道　苫前町": {
    "lat": 44.306086,
    "long": 141.652932,
    "building": "苫前町役場",
    "address": "苫前郡苫前町字旭37-1",
    "urls": [
      "http://www.town.tomamae.lg.jp/section/gikai/t55cub0000000zo1-att/t55cub0000000zos.pdf"
    ],
    "reprs_xpath": ""
  },
  "北海道　羽幌町": {
    "lat": 44.36061,
    "long": 141.697249,
    "building": "羽幌町役場",
    "address": "苫前郡羽幌町南町1-1",
    "urls": ["https://www.town.haboro.lg.jp/gikai-iinkai/gikai/meibo.html"],
    "reprs_xpath": "//*[@id=\"content\"]/div[1]/table"
  },
  "北海道　初山別村": {
    "lat": 44.532149,
    "long": 141.766342,
    "building": "初山別村役場",
    "address": "苫前郡初山別村字初山別96-1",
    "urls": [
      "http://www.vill.shosanbetsu.lg.jp/shosanbetsu/wp-content/uploads/2019/12/R1.5.8_giinichiranhyou.pdf"
    ],
    "reprs_xpath": ""
  },
  "北海道　遠別町": {
    "lat": 44.722462,
    "long": 141.792322,
    "building": "遠別町役場",
    "address": "天塩郡遠別町字本町3-37",
    "urls": ["http://www.town.embetsu.hokkaido.jp/docs/2013080900205/"],
    "reprs_xpath": ""
  },
  "北海道　天塩町": {
    "lat": 44.888121,
    "long": 141.745324,
    "building": "天塩町役場",
    "address": "天塩郡天塩町新栄通8丁目",
    "urls": ["https://www.teshiotown.hokkaido.jp/?page_id=17691"],
    "reprs_xpath": "/html/body/article/div"
  },
  "北海道　猿払村": {
    "lat": 45.33061,
    "long": 142.108945,
    "building": "猿払村役場",
    "address": "宗谷郡猿払村鬼志別西町172-1",
    "urls": [
      "https://www.vill.sarufutsu.hokkaido.jp/hotnews/detail_sp/00004176.html"
    ],
    "reprs_xpath": "//*[@id=\"article\"]"
  },
  "北海道　浜頓別町": {
    "lat": 45.123716,
    "long": 142.35964,
    "building": "浜頓別町役場",
    "address": "枝幸郡浜頓別町中央南1",
    "urls": [
      "http://www.town.hamatonbetsu.hokkaido.jp/town/detail.php?content=39"
    ],
    "reprs_xpath": "//*[@id=\"content-2\"]/div/div/table"
  },
  "北海道　中頓別町": {
    "lat": 44.96971,
    "long": 142.286705,
    "building": "中頓別町役場",
    "address": "枝幸郡中頓別町字中頓別172-6",
    "urls": [
      "https://www.town.nakatombetsu.hokkaido.jp/wp-content/uploads/b9ebc30dab683975ec2eb0e9f41b3e4d-1.pdf"
    ],
    "reprs_xpath": ""
  },
  "北海道　枝幸町": {
    "lat": 44.9387,
    "long": 142.581405,
    "building": "枝幸町役場",
    "address": "枝幸郡枝幸町本町916",
    "urls": ["https://www.esashi.jp/gikai/introduction/member.html"],
    "reprs_xpath": "//*[@id=\"article\"]/section[1]"
  },
  "北海道　豊富町": {
    "lat": 45.102847,
    "long": 141.777508,
    "building": "豊富町役場",
    "address": "天塩郡豊富町大通6丁目",
    "urls": [
      "https://www.town.toyotomi.hokkaido.jp/section/gikaijimukyoku/a7cug60000000evt.html"
    ],
    "reprs_xpath": "//*[@id=\"s5\"]/div/table"
  },
  "北海道　礼文町": {
    "lat": 45.303062,
    "long": 141.047717,
    "building": "礼文町役場",
    "address": "礼文郡礼文町大字香深村字トンナイ558-5",
    "urls": [
      "https://www.town.rebun.hokkaido.jp/hotnews/files/00000100/00000133/r3meibo.pdf"
    ],
    "reprs_xpath": ""
  },
  "北海道　利尻町": {
    "lat": 45.187041,
    "long": 141.139597,
    "building": "利尻町役場",
    "address": "利尻郡利尻町沓形字緑町14-1",
    "urls": ["http://110.50.94.218/rishiri/secure/1159/list_00_h301009.pdf"],
    "reprs_xpath": ""
  },
  "北海道　利尻富士町": {
    "lat": 45.247459,
    "long": 141.214719,
    "building": "利尻富士町役場",
    "address": "利尻郡利尻富士町鴛泊字富士野6",
    "urls": ["https://www.town.rishirifuji.hokkaido.jp/rishirifuji/1209.htm"],
    "reprs_xpath": "//*[@id=\"ContentPane\"]"
  },
  "北海道　幌延町": {
    "lat": 45.017635,
    "long": 141.849386,
    "building": "幌延町役場",
    "address": "天塩郡幌延町宮園町1番地1",
    "urls": [
      "https://www.town.horonobe.lg.jp/www4/section/gikai/le009f000001czdw.html"
    ],
    "reprs_xpath": ""
  },
  "北海道　美幌町": {
    "lat": 43.824248,
    "long": 144.107523,
    "building": "美幌町役場",
    "address": "網走郡美幌町字東2条北2-25",
    "urls": ["http://www.town.bihoro.hokkaido.jp/docs/2021051200025/"],
    "reprs_xpath": "//*[@id=\"contentBody\"]/div[2]"
  },
  "北海道　津別町": {
    "lat": 43.706261,
    "long": 144.025237,
    "building": "津別町役場",
    "address": "網走郡津別町字幸町41",
    "urls": [
      "https://www.town.tsubetsu.hokkaido.jp/soshikikarasagasu/gikai_kansaiin/1/5/1027.html"
    ],
    "reprs_xpath": "//*[@id=\"contents\"]"
  },
  "北海道　斜里町": {
    "lat": 43.911441,
    "long": 144.670713,
    "building": "斜里町役場",
    "address": "斜里郡斜里町本町12",
    "urls": ["http://gikai-sharitown.net/meibo.html"],
    "reprs_xpath": "//*[@id=\"sp-table-54\"]"
  },
  "北海道　清里町": {
    "lat": 43.835224,
    "long": 144.594582,
    "building": "清里町役場",
    "address": "斜里郡清里町羽衣町13",
    "urls": [
      "https://www.town.kiyosato.hokkaido.jp/gyousei/gikai/giinmeibo.html"
    ],
    "reprs_xpath": "//*[@id=\"main\"]"
  },
  "北海道　小清水町": {
    "lat": 43.856679,
    "long": 144.462114,
    "building": "小清水町役場",
    "address": "斜里郡小清水町元町2-1-1",
    "urls": [
      "https://www.town.koshimizu.hokkaido.jp/gikai/detail/00000407.html"
    ],
    "reprs_xpath": "//*[@id=\"main_area_page\"]"
  },
  "北海道　訓子府町": {
    "lat": 43.725328,
    "long": 143.741665,
    "building": "訓子府町役場",
    "address": "常呂郡訓子府町東町398",
    "urls": ["https://www.town.kunneppu.hokkaido.jp/gikai/giinnosyokai.html"],
    "reprs_xpath": "//*[@id=\"maincontents\"]/div[2]/div/div[1]/article"
  },
  "北海道　置戸町": {
    "lat": 43.676328,
    "long": 143.586402,
    "building": "置戸町役場",
    "address": "常呂郡置戸町字置戸181",
    "urls": ["http://www.town.oketo.hokkaido.jp/gikai/giin/"],
    "reprs_xpath": "//*[@id=\"main-wrap\"]"
  },
  "北海道　佐呂間町": {
    "lat": 44.017859,
    "long": 143.774714,
    "building": "佐呂間町役場",
    "address": "常呂郡佐呂間町字永代町3-1",
    "urls": [
      "https://www.town.saroma.hokkaido.jp/gikai/gikai_about/giinshoukai.html"
    ],
    "reprs_xpath": "//*[@id=\"content\"]/table"
  },
  "北海道　遠軽町": {
    "lat": 44.061947,
    "long": 143.527726,
    "building": "遠軽町役場",
    "address": "紋別郡遠軽町1条通北3-1-1",
    "urls": [
      "https://engaru.jp/common/img/content/content_20231102_154850.pdf"
    ],
    "reprs_xpath": ""
  },
  "北海道　湧別町": {
    "lat": 44.151465,
    "long": 143.572919,
    "building": "湧別町役場",
    "address": "紋別郡湧別町上湧別屯田市街地318",
    "urls": [
      "https://www.town.yubetsu.lg.jp/administration/town/detail.html?content=15"
    ],
    "reprs_xpath": "/html/body/div[2]/article/div/div/div[1]/div/div"
  },
  "北海道　滝上町": {
    "lat": 44.19227,
    "long": 143.07765,
    "building": "滝上町役場",
    "address": "紋別郡滝上町字滝ノ上市街地4条通2-1",
    "urls": ["https://town.takinoue.hokkaido.jp/gikai/kosei/meibo.html"],
    "reprs_xpath": "//*[@id=\"mainContents\"]"
  },
  "北海道　興部町": {
    "lat": 44.469874,
    "long": 143.123699,
    "building": "興部町役場",
    "address": "紋別郡興部町字興部710",
    "urls": [
      "https://www.town.okoppe.lg.jp/cms/section/gikai/nbm3tm0000000m1e.html"
    ],
    "reprs_xpath": "//*[@id=\"s0\"]"
  },
  "北海道　西興部村": {
    "lat": 44.328833,
    "long": 142.944445,
    "building": "西興部村役場",
    "address": "紋別郡西興部村字西興部100",
    "urls": [
      "https://www.vill.nishiokoppe.lg.jp/section/gikai/feeuub0000002jc4.html"
    ],
    "reprs_xpath": "//*[@id=\"s1\"]/div/div/table"
  },
  "北海道　雄武町": {
    "lat": 44.582482,
    "long": 142.961863,
    "building": "雄武町役場",
    "address": "紋別郡雄武町本町",
    "urls": [
      "https://www.town.oumu.hokkaido.jp/soshiki/gikaijimukyoku/omuchogikai/531.html"
    ],
    "reprs_xpath": "//*[@id=\"contents\"]"
  },
  "北海道　大空町": {
    "lat": 43.911858,
    "long": 144.172473,
    "building": "大空町役場",
    "address": "網走郡大空町女満別西3条4丁目1-1",
    "urls": ["https://www.town.ozora.hokkaido.jp/soshiki/1002/1/814.html"],
    "reprs_xpath": "//*[@id=\"contents\"]"
  },
  "北海道　豊浦町": {
    "lat": 42.583464,
    "long": 140.711815,
    "building": "豊浦町役場",
    "address": "虻田郡豊浦町字船見町10",
    "urls": [
      "https://www.town.toyoura.hokkaido.jp/hotnews/files/00001400/00001430/20221117131218.pdf"
    ],
    "reprs_xpath": ""
  },
  "北海道　壮瞥町": {
    "lat": 42.552556,
    "long": 140.885472,
    "building": "壮瞥町役場",
    "address": "有珠郡壮瞥町字滝之町287-7",
    "urls": [
      "https://www.town.sobetsu.lg.jp/gikai.html",
      "//*[@id=\"base-container\"]/div[2]/div[2]/table[1]/tbody"
    ],
    "reprs_xpath": ""
  },
  "北海道　白老町": {
    "lat": 42.551259,
    "long": 141.355861,
    "building": "白老町役場",
    "address": "白老郡白老町大町1-1-1",
    "urls": [
      "https://www.town.shiraoi.hokkaido.jp/fs/4/2/5/4/2/_/giinmeibo.pdf"
    ],
    "reprs_xpath": ""
  },
  "北海道　厚真町": {
    "lat": 42.723566,
    "long": 141.877841,
    "building": "厚真町役場",
    "address": "勇払郡厚真町京町120",
    "urls": ["https://www.town.atsuma.lg.jp/gikai/members/"],
    "reprs_xpath": "/html/body/main/article/div[3]/div/div[2]"
  },
  "北海道　洞爺湖町": {
    "lat": 42.551223,
    "long": 140.764128,
    "building": "洞爺湖町役場",
    "address": "虻田郡洞爺湖町栄町58",
    "urls": [
      "http://www.town.toyako.hokkaido.jp/town_administration/town_council/toc002/"
    ],
    "reprs_xpath": "//*[@id=\"article\"]"
  },
  "北海道　安平町": {
    "lat": 42.762798,
    "long": 141.818047,
    "building": "安平町役場",
    "address": "勇払郡安平町早来大町95",
    "urls": ["https://www.town.abira.lg.jp/gyosei/gikai-meibo"],
    "reprs_xpath": "/html/body/div[2]/div/div[1]/article/div/table[1]"
  },
  "北海道　むかわ町": {
    "lat": 42.574741,
    "long": 141.926761,
    "building": "むかわ町役場",
    "address": "勇払郡むかわ町美幸2-88",
    "urls": ["http://www.town.mukawa.lg.jp/3043.htm"],
    "reprs_xpath": "//*[@id=\"masonry\"]/table/tbody"
  },
  "北海道　日高町": {
    "lat": 42.480318,
    "long": 142.074359,
    "building": "日高町役場",
    "address": "沙流郡日高町門別本町210-1",
    "urls": [
      "https://www.town.hidaka.hokkaido.jp/site/gikai/shoukai-giinshoukai.html"
    ],
    "reprs_xpath": "/html/body/div/div[5]/div/div[3]/div/table"
  },
  "北海道　平取町": {
    "lat": 42.585098,
    "long": 142.128525,
    "building": "平取町役場",
    "address": "沙流郡平取町本町28",
    "urls": ["http://www.town.biratori.hokkaido.jp/gikai/meibo/"],
    "reprs_xpath": "//*[@id=\"w_box\"]/section/div/table"
  },
  "北海道　新冠町": {
    "lat": 42.362417,
    "long": 142.318315,
    "building": "新冠町役場",
    "address": "新冠郡新冠町字北星町3-2",
    "urls": ["https://www.niikappu.jp/gyose/gikai/gin.html"],
    "reprs_xpath": "//*[@id=\"contents\"]/table[2]/tbody"
  },
  "北海道　浦河町": {
    "lat": 42.168355,
    "long": 142.768213,
    "building": "浦河町役場",
    "address": "浦河郡浦河町築地1-3-1",
    "urls": [
      "https://www.town.urakawa.hokkaido.jp/gyosei/council/?content=770"
    ],
    "reprs_xpath": "/html/body/div[1]/div[1]/div/div[1]/main/div[2]"
  },
  "北海道　様似町": {
    "lat": 42.127737,
    "long": 142.933797,
    "building": "様似町役場",
    "address": "様似郡様似町大通1-21",
    "urls": ["http://www.samani.jp/profile/index7.html"],
    "reprs_xpath": "//*[@id=\"main\"]/div[1]/table/tbody"
  },
  "北海道　えりも町": {
    "lat": 42.016298,
    "long": 143.148348,
    "building": "えりも町役場",
    "address": "幌泉郡えりも町字本町206",
    "urls": [
      "https://www.town.erimo.lg.jp/section/gikai/u9c3nn0000000p1q.html"
    ],
    "reprs_xpath": "//*[@id=\"s0\"]"
  },
  "北海道　新ひだか町": {
    "lat": 42.341276,
    "long": 142.368588,
    "building": "新ひだか町役場",
    "address": "日高郡新ひだか町静内御幸町3丁目2-50",
    "urls": ["https://www.shinhidaka-hokkaido.jp/gikai/detail/00001925.html"],
    "reprs_xpath": "//*[@id=\"page_maincontents\"]/div/table"
  },
  "北海道　音更町": {
    "lat": 42.994115,
    "long": 143.197869,
    "building": "音更町役場",
    "address": "河東郡音更町元町2",
    "urls": [
      "https://www.town.otofuke.hokkaido.jp/files/00004400/00004446/r5_giinmeibo1011.pdf"
    ],
    "reprs_xpath": ""
  },
  "北海道　士幌町": {
    "lat": 43.168047,
    "long": 143.241344,
    "building": "士幌町役場",
    "address": "河東郡士幌町字士幌225",
    "urls": [
      "https://www.shihoro.jp/assembly/introduction/",
      "https://www.shihoro.jp/assembly/introduction/"
    ],
    "reprs_xpath": "//*[@id=\"content-1\"]"
  },
  "北海道　上士幌町": {
    "lat": 43.232615,
    "long": 143.296243,
    "building": "上士幌町役場",
    "address": "河東郡上士幌町字上士幌東3線238",
    "urls": ["https://www.kamishihoro.jp/page/00000152"],
    "reprs_xpath": "//*[@id=\"main\"]/div[2]/div[1]/table"
  },
  "北海道　鹿追町": {
    "lat": 43.098876,
    "long": 142.989028,
    "building": "鹿追町役場",
    "address": "河東郡鹿追町東町1-15-1",
    "urls": ["https://www.town.shikaoi.lg.jp/gikai/meibo/"],
    "reprs_xpath": "//*[@id=\"article\"]"
  },
  "北海道　新得町": {
    "lat": 43.079741,
    "long": 142.838822,
    "building": "新得町役場",
    "address": "上川郡新得町3条南4-26",
    "urls": [
      "https://www.shintoku-town.jp/gyousei/gikai/giinmeibo/",
      "//*[@id=\"paragraph3414\"]/table"
    ],
    "reprs_xpath": ""
  },
  "北海道　清水町": {
    "lat": 43.011423,
    "long": 142.884568,
    "building": "清水町役場",
    "address": "上川郡清水町南4条2-2",
    "urls": ["https://www.town.shimizu.hokkaido.jp/gikai/introduction/"],
    "reprs_xpath": "/html/body/div[1]/main/article/section/div"
  },
  "北海道　芽室町": {
    "lat": 42.911547,
    "long": 143.050835,
    "building": "芽室町役場",
    "address": "河西郡芽室町東2条2-14",
    "urls": ["https://mgikai.memuro.net/about/member/assembly.html"],
    "reprs_xpath": "/html/body/div[1]/main/article/section/div"
  },
  "北海道　中札内村": {
    "lat": 42.697864,
    "long": 143.134395,
    "building": "中札内村役場",
    "address": "河西郡中札内村東1条南1丁目2番地1",
    "urls": ["https://www.vill.nakasatsunai.hokkaido.jp/gikai/giin_shokai/"],
    "reprs_xpath": "//*[@id=\"wrap\"]/main"
  },
  "北海道　更別村": {
    "lat": 42.650415,
    "long": 143.187794,
    "building": "更別村役場",
    "address": "河西郡更別村字更別南1線93",
    "urls": ["https://www.sarabetsu.jp/gikai/giinmeibo/"],
    "reprs_xpath": "//*[@id=\"a_inner\"]"
  },
  "北海道　大樹町": {
    "lat": 42.497698,
    "long": 143.278989,
    "building": "大樹町役場",
    "address": "広尾郡大樹町東本通33",
    "urls": ["https://www.town.taiki.hokkaido.jp/soshiki/gikai/giinmeibo.html"],
    "reprs_xpath": "//*[@id=\"alpha\"]/section/div[2]/table/tbody"
  },
  "北海道　広尾町": {
    "lat": 42.285841,
    "long": 143.311498,
    "building": "広尾町役場",
    "address": "広尾郡広尾町西4条7-1",
    "urls": ["https://www.town.hiroo.lg.jp/gikai/gikai_giinshoukai/"],
    "reprs_xpath": "//*[@id=\"wrap\"]/main"
  },
  "北海道　幕別町": {
    "lat": 42.908198,
    "long": 143.356085,
    "building": "幕別町役場",
    "address": "中川郡幕別町本町130-1",
    "urls": [
      "https://www.town.makubetsu.lg.jp/chosei/gikai/giinsyoukai/giinnmeibo.html"
    ],
    "reprs_xpath": "//*[@id=\"content\"]/div[2]/table"
  },
  "北海道　池田町": {
    "lat": 42.92898,
    "long": 143.448472,
    "building": "池田町役場",
    "address": "中川郡池田町西1条7-11",
    "urls": [
      "https://www.town.hokkaido-ikeda.lg.jp/kikan/gikai/chogikai/955.html"
    ],
    "reprs_xpath": "//*[@id=\"article\"]/table"
  },
  "北海道　豊頃町": {
    "lat": 42.801023,
    "long": 143.5059,
    "building": "豊頃町役場",
    "address": "中川郡豊頃町茂岩本町125",
    "urls": ["https://www.toyokoro.jp/site/gikai/3886.html"],
    "reprs_xpath": "//*[@id=\"main_body\"]/div[1]/div/div/div/table/tbody"
  },
  "北海道　本別町": {
    "lat": 43.124615,
    "long": 143.610962,
    "building": "本別町役場",
    "address": "中川郡本別町北2-4-1",
    "urls": [
      "https://www.town.honbetsu.hokkaido.jp/web/parliament/parliament03.html"
    ],
    "reprs_xpath": "//*[@id=\"wrap\"]/div[6]/section[2]/div/div[1]/table/tbody"
  },
  "北海道　足寄町": {
    "lat": 43.244786,
    "long": 143.55393,
    "building": "足寄町役場",
    "address": "足寄郡足寄町北1条4-48-1",
    "urls": ["https://www.town.ashoro.hokkaido.jp/gikai/giin/page_4.html"],
    "reprs_xpath": "//*[@id=\"main\"]/div[3]/article/table/tbody"
  },
  "北海道　陸別町": {
    "lat": 43.468914,
    "long": 143.747305,
    "building": "陸別町役場",
    "address": "足寄郡陸別町字陸別東1条3-1",
    "urls": ["https://www.rikubetsu.jp/gikai/giin_syoukai/"],
    "reprs_xpath": "//*[@id=\"paragraph4879\"]/table"
  },
  "北海道　浦幌町": {
    "lat": 42.808947,
    "long": 143.658581,
    "building": "浦幌町役場",
    "address": "十勝郡浦幌町字桜町15-6",
    "urls": [
      "https://www.urahoro.jp/soshiki_shigoto/gikaijimukyoku/files/giinmeiboR5.8.pdf"
    ],
    "reprs_xpath": ""
  },
  "北海道　釧路町": {
    "lat": 42.996124,
    "long": 144.466081,
    "building": "釧路町役場",
    "address": "釧路郡釧路町別保1-1",
    "urls": ["http://www.town.kushiro.lg.jp/gikai/meibo.html"],
    "reprs_xpath": "//*[@id=\"Hontai\"]/div/table"
  },
  "北海道　厚岸町": {
    "lat": 43.051951,
    "long": 144.847443,
    "building": "厚岸町役場",
    "address": "厚岸郡厚岸町真栄3丁目1番地",
    "urls": ["https://www.akkeshi-town.jp/chogikai/member/"],
    "reprs_xpath": "//*[@id=\"paragraph5795\"]/table"
  },
  "北海道　浜中町": {
    "lat": 43.076292,
    "long": 145.130953,
    "building": "浜中町役場",
    "address": "厚岸郡浜中町湯沸445番地",
    "urls": ["https://www.townhamanaka.jp/gyousei/2019-0524-0940-33.html]"],
    "reprs_xpath": "//*[@id=\"content\"]/table"
  },
  "北海道　標茶町": {
    "lat": 43.303337,
    "long": 144.600665,
    "building": "標茶町役場",
    "address": "川上郡標茶町川上4-2",
    "urls": ["https://town.shibecha.hokkaido.jp/gikai/giin.html"],
    "reprs_xpath": "//*[@id=\"content\"]/table/tbody"
  },
  "北海道　弟子屈町": {
    "lat": 43.485352,
    "long": 144.459223,
    "building": "弟子屈町役場",
    "address": "川上郡弟子屈町中央2-3-1",
    "urls": [
      "https://www.town.teshikaga.hokkaido.jp/kurashi/machizukurijoho/teshikagachogikai/giinnmeibo/3401.html",
      "https://town.teshikaga.hokkaido.jp/kurashi/machizukurijoho/teshikagachogikai/giinnmeibo/3401.html"
    ],
    "reprs_xpath": "//*[@id=\"contents\"]"
  },
  "北海道　鶴居村": {
    "lat": 43.23016,
    "long": 144.321165,
    "building": "鶴居村役場",
    "address": "阿寒郡鶴居村鶴居西1-1",
    "urls": [
      "https://www.vill.tsurui.lg.jp/soshikikarasagasu/gikaijimukyoku/594.html"
    ],
    "reprs_xpath": "//*[@id=\"contents\"]"
  },
  "北海道　白糠町": {
    "lat": 42.956161,
    "long": 144.071805,
    "building": "白糠町役場",
    "address": "白糠郡白糠町西1条南1-1-1",
    "urls": [
      "https://www.town.shiranuka.lg.jp/section/gikai/qvum4j00000000y7.html"
    ],
    "reprs_xpath": "//*[@id=\"contents\"]"
  },
  "北海道　別海町": {
    "lat": 43.39399,
    "long": 145.117341,
    "building": "別海町役場",
    "address": "野付郡別海町別海常盤町280",
    "urls": [
      "https://betsukai.jp/gikai/giin/nishihara_hitoshi/",
      "https://betsukai.jp/gikai/giin/toda_kenetu/",
      "https://betsukai.jp/gikai/giin/maria_itchikawa/",
      "https://betsukai.jp/gikai/giin/kazuyuki_yoshida/",
      "https://betsukai.jp/gikai/giin/mayumi_takahashi/",
      "https://betsukai.jp/gikai/giin/tooru_ise/",
      "https://betsukai.jp/gikai/giin/takuo_sadamune/",
      "https://betsukai.jp/gikai/giin/masato_miyakoshi/",
      "https://betsukai.jp/gikai/giin/yasue_yokota/",
      "https://betsukai.jp/gikai/giin/hideo_tamura/",
      "https://betsukai.jp/gikai/giin/tetsuya_ogura/",
      "https://betsukai.jp/gikai/giin/kouji_toyamai/",
      "https://betsukai.jp/gikai/giin/kazuo_imanishi/",
      "https://betsukai.jp/gikai/giin/nakamura_tadasi/",
      "https://betsukai.jp/gikai/giin/sato_hatsuo/"
    ],
    "reprs_xpath": "//*[@id=\"article\"]"
  },
  "北海道　中標津町": {
    "lat": 43.555191,
    "long": 144.971504,
    "building": "中標津町役場",
    "address": "標津郡中標津町丸山2-22",
    "urls": [
      "https://www.nakashibetsu.jp/file/contents/2883/25399/giinmeibo_04.09.03.pdf"
    ],
    "reprs_xpath": ""
  },
  "北海道　標津町": {
    "lat": 43.661309,
    "long": 145.131325,
    "building": "標津町役場",
    "address": "標津郡標津町北2条西1-1-3",
    "urls": [
      "https://www.shibetsutown.jp/file/contents/328/17455/giinnmeibo.pdf"
    ],
    "reprs_xpath": ""
  },
  "北海道　羅臼町": {
    "lat": 44.021953,
    "long": 145.189532,
    "building": "羅臼町役場",
    "address": "目梨郡羅臼町栄町100-83",
    "urls": ["https://www.rausu-town.jp/pages/view/152"],
    "reprs_xpath": "//*[@id=\"pagetop\"]/section[1]/div/section/section/section[2]/div[1]/section/table[6]"
  },
  "青森県　青森市": {
    "lat": 40.82264,
    "long": 140.746957,
    "building": "青森市役所",
    "address": "青森市中央1-22-5",
    "urls": [
      "https://www.city.aomori.aomori.jp/gikai/shigikai/giin-syoukai/meibo50.html"
    ],
    "reprs_xpath": "//*[@id=\"tmp_contents_in\"]"
  },
  "青森県　弘前市": {
    "lat": 40.602965,
    "long": 140.464008,
    "building": "弘前市役所",
    "address": "弘前市大字上白銀町1-1",
    "urls": ["https://www.city.hirosaki.aomori.jp/gikai/giin.html"],
    "reprs_xpath": "//*[@id=\"detail\"]"
  },
  "青森県　八戸市": {
    "lat": 40.512278,
    "long": 141.488404,
    "building": "八戸市役所",
    "address": "八戸市内丸1-1-1",
    "urls": [
      "https://www.city.hachinohe.aomori.jp/soshikikarasagasu/gikaijimukyokushomuka/hachinoheshigikai/1/4329.html"
    ],
    "reprs_xpath": "//*[@id=\"contents-in\"]/div[1]/div"
  },
  "青森県　黒石市": {
    "lat": 40.642608,
    "long": 140.594547,
    "building": "黒石市役所",
    "address": "黒石市大字市ノ町11-1",
    "urls": ["http://www.city.kuroishi.aomori.jp/shisei/gikai/giinmeibo.html"],
    "reprs_xpath": "//*[@id=\"detail\"]/div[2]"
  },
  "青森県　五所川原市": {
    "lat": 40.807835,
    "long": 140.446118,
    "building": "五所川原市役所",
    "address": "五所川原市字布屋町41-1",
    "urls": [
      "https://www.city.goshogawara.lg.jp/gikai/2-1meibogisekibanngoujunn.html"
    ],
    "reprs_xpath": "//*[@id=\"contents\"]"
  },
  "青森県　十和田市": {
    "lat": 40.612703,
    "long": 141.20591,
    "building": "十和田市役所",
    "address": "十和田市西十二番町6-1",
    "urls": [
      "https://www.city.towada.lg.jp/shisei/gikai/giinichiran/2023-0116-1555-176.html"
    ],
    "reprs_xpath": "//*[@id=\"wrap\"]/div[1]/div[2]/table/tbody"
  },
  "青森県　三沢市": {
    "lat": 40.683078,
    "long": 141.369093,
    "building": "三沢市役所",
    "address": "三沢市桜町1-1-38",
    "urls": ["https://www.city.misawa.lg.jp/index.cfm/24,0,119,html"],
    "reprs_xpath": "//*[@id=\"CenterArea\"]/div[2]/section/div[1]/div"
  },
  "青森県　むつ市": {
    "lat": 41.292835,
    "long": 141.183174,
    "building": "むつ市役所",
    "address": "むつ市中央1丁目8-1",
    "urls": ["https://www.city.mutsu.lg.jp/gikai/giin/2023-1026-1356-100.html"],
    "reprs_xpath": "//*[@id=\"wrap\"]/section[1]/div[1]"
  },
  "青森県　つがる市": {
    "lat": 40.808836,
    "long": 140.380195,
    "building": "つがる市役所",
    "address": "つがる市木造若緑61-1",
    "urls": [
      "https://www.city.tsugaru.aomori.jp/soshiki/shigikai/syoukai/1860.html"
    ],
    "reprs_xpath": "//*[@id=\"contents-in\"]/div[1]/div"
  },
  "青森県　平川市": {
    "lat": 40.583742,
    "long": 140.567123,
    "building": "平川市役所",
    "address": "平川市柏木町藤山25-6",
    "urls": [
      "https://www.city.hirakawa.lg.jp/jouhou/gikai/jouhou/giinsyoukai.html"
    ],
    "reprs_xpath": "//*[@id=\"detail\"]/div[1]"
  },
  "青森県　平内町": {
    "lat": 40.926023,
    "long": 140.955884,
    "building": "平内町役場",
    "address": "東津軽郡平内町大字小湊字小湊63",
    "urls": [
      "https://www.town.hiranai.aomori.jp/material/files/group/14/giinsyoukaikousin1.pdf"
    ],
    "reprs_xpath": ""
  },
  "青森県　今別町": {
    "lat": 41.181875,
    "long": 140.48161,
    "building": "今別町役場",
    "address": "東津軽郡今別町大字今別字今別167",
    "urls": ["https://www.town.imabetsu.lg.jp/gyousei/gikai/soshiki.html"],
    "reprs_xpath": "//*[@id=\"content\"]/div/table[1]"
  },
  "青森県　蓬田村": {
    "lat": 40.971779,
    "long": 140.656053,
    "building": "蓬田村役場",
    "address": "東津軽郡蓬田村大字蓬田字汐越1-3",
    "urls": ["https://www.vill.yomogita.lg.jp/sonsei/gikai/giin_shoukai.html"],
    "reprs_xpath": "//*[@id=\"cont_wrap\"]/section[1]"
  },
  "青森県　外ヶ浜町": {
    "lat": 41.043159,
    "long": 140.632243,
    "building": "外ヶ浜町役場",
    "address": "東津軽郡外ヶ浜町字蟹田高銅屋44-2",
    "urls": ["https://www.town.sotogahama.lg.jp/gyosei/gikai/meibo.html"],
    "reprs_xpath": "//*[@id=\"mainside\"]"
  },
  "青森県　鰺ヶ沢町": {
    "lat": 40.783011,
    "long": 140.233912,
    "building": "鰺ヶ沢町役場",
    "address": "西津軽郡鰺ヶ沢町大字舞戸町字鳴戸321番地",
    "urls": [
      "https://www.town.ajigasawa.lg.jp/about_town/gikai/giinmeibo.html"
    ],
    "reprs_xpath": "//*[@id=\"main\"]"
  },
  "青森県　深浦町": {
    "lat": 40.647876,
    "long": 139.927431,
    "building": "深浦町役場",
    "address": "西津軽郡深浦町大字深浦字苗代沢84-2",
    "urls": ["https://www.town.fukaura.lg.jp/fixed_docs/2023051800014/"],
    "reprs_xpath": "//*[@id=\"contentBody\"]/article"
  },
  "青森県　西目屋村": {
    "lat": 40.577437,
    "long": 140.297171,
    "building": "西目屋村役場",
    "address": "中津軽郡西目屋村大字田代字神田57番地",
    "urls": ["https://www.nishimeya.jp/sonseijoho/songikai/418.html"],
    "reprs_xpath": "//*[@id=\"contents-in\"]/div[1]/div/div[2]/div/table"
  },
  "青森県　藤崎町": {
    "lat": 40.656064,
    "long": 140.502824,
    "building": "藤崎町役場",
    "address": "南津軽郡藤崎町大字西豊田1-1",
    "urls": ["https://town.fujisaki.lg.jp/index.cfm/9,18564,83,220,html"],
    "reprs_xpath": "//*[@id=\"CenterArea\"]/div[2]/section"
  },
  "青森県　大鰐町": {
    "lat": 40.518356,
    "long": 140.567878,
    "building": "大鰐町役場",
    "address": "南津軽郡大鰐町大字大鰐字羽黒館5-3",
    "urls": ["http://www.town.owani.lg.jp/index.cfm/9,0,46,118,html"],
    "reprs_xpath": "//*[@id=\"CenterArea\"]/div[3]/div[1]/div"
  },
  "青森県　田舎館村": {
    "lat": 40.631259,
    "long": 140.550198,
    "building": "田舎館村役場",
    "address": "南津軽郡田舎館村大字田舎館字中辻123-1",
    "urls": ["http://www.vill.inakadate.lg.jp/docs/2012022700163/"],
    "reprs_xpath": "//*[@id=\"contentBody\"]/div/div[2]/div[1]/table"
  },
  "青森県　板柳町": {
    "lat": 40.695954,
    "long": 140.4577,
    "building": "板柳町役場",
    "address": "北津軽郡板柳町大字板柳字土井239-3",
    "urls": ["https://www.town.itayanagi.aomori.jp/gikai/meibo.html"],
    "reprs_xpath": "//*[@id=\"content\"]/div[2]"
  },
  "青森県　鶴田町": {
    "lat": 40.758819,
    "long": 140.428702,
    "building": "鶴田町役場",
    "address": "北津軽郡鶴田町大字鶴田字早瀬200-1",
    "urls": ["http://www.town.tsuruta.lg.jp/syoukai/syoukai-gikai/meibo.html"],
    "reprs_xpath": "//*[@id=\"RightColumnArea\"]/div/table/tbody"
  },
  "青森県　中泊町": {
    "lat": 40.960427,
    "long": 140.434122,
    "building": "中泊町役場",
    "address": "北津軽郡中泊町大字中里字紅葉坂209",
    "urls": [
      "https://www.town.nakadomari.lg.jp/soshikikarasagasu/gikaijimukyoku/2/716.html"
    ],
    "reprs_xpath": "//*[@id=\"contents-in\"]/div[1]/div"
  },
  "青森県　野辺地町": {
    "lat": 40.864447,
    "long": 141.128685,
    "building": "野辺地町役場",
    "address": "上北郡野辺地町字野辺地123-1",
    "urls": ["http://www.town.noheji.aomori.jp/life/chosei/gikai/giin-meibo"],
    "reprs_xpath": "//*[@id=\"contents\"]/div[1]/table/tbody"
  },
  "青森県　七戸町": {
    "lat": 40.744714,
    "long": 141.157991,
    "building": "七戸町役場",
    "address": "上北郡七戸町字森ノ上131-4",
    "urls": [
      "https://www.town.shichinohe.lg.jp/gyosei/a240d8e8e580f905455b10d595909f17_2.pdf"
    ],
    "reprs_xpath": ""
  },
  "青森県　六戸町": {
    "lat": 40.609526,
    "long": 141.324958,
    "building": "六戸町役場",
    "address": "上北郡六戸町大字犬落瀬字前谷地60",
    "urls": ["https://www.town.rokunohe.aomori.jp/chousei_cyougikai_giin.html"],
    "reprs_xpath": "//*[@id=\"hpb-main\"]/table/tbody"
  },
  "青森県　横浜町": {
    "lat": 41.083155,
    "long": 141.247782,
    "building": "横浜町役場",
    "address": "上北郡横浜町字寺下35",
    "urls": [
      "http://www.town.yokohama.lg.jp/index.cfm/10,2979,c,html/2979/20230517-102004.pdf"
    ],
    "reprs_xpath": ""
  },
  "青森県　東北町": {
    "lat": 40.727871,
    "long": 141.257888,
    "building": "東北町役場",
    "address": "上北郡東北町上北南4-32-484",
    "urls": ["http://www.town.tohoku.lg.jp/chousei/gikai/gikai_syoukai.html"],
    "reprs_xpath": "//*[@id=\"contents\"]/div/div[1]/div"
  },
  "青森県　六ヶ所村": {
    "lat": 40.967375,
    "long": 141.374434,
    "building": "六ヶ所村役場",
    "address": "上北郡六ヶ所村大字尾駮字野附475",
    "urls": ["https://www.rokkasho.jp/index.cfm/15,0,32,135,html"],
    "reprs_xpath": "//*[@id=\"Main\"]/div[2]/section/div[1]/div"
  },
  "青森県　おいらせ町": {
    "lat": 40.599104,
    "long": 141.397822,
    "building": "おいらせ町役場",
    "address": "上北郡おいらせ町中下田135-2",
    "urls": ["https://www.town.oirase.aomori.jp/site/gikai/giin-syoukai.html"],
    "reprs_xpath": "//*[@id=\"main_body\"]/div[4]/table/tbody"
  },
  "青森県　大間町": {
    "lat": 41.522388,
    "long": 140.90483,
    "building": "大間町役場",
    "address": "下北郡大間町大字大間字奥戸下道20-4",
    "urls": [],
    "reprs_xpath": ""
  },
  "青森県　東通村": {
    "lat": 41.277726,
    "long": 141.3289,
    "building": "東通村役場",
    "address": "下北郡東通村大字砂子又字沢内5-34",
    "urls": ["http://www.vill.higashidoori.lg.jp/gikai/page520005.html"],
    "reprs_xpath": "//*[@id=\"mainAreaInner\"]"
  },
  "青森県　風間浦村": {
    "lat": 41.487487,
    "long": 140.995534,
    "building": "風間浦村役場",
    "address": "下北郡風間浦村大字易国間字大川目28-5",
    "urls": [
      "https://www.kazamaura.jp/administration/%E8%AD%B0%E4%BC%9A%E6%83%85%E5%A0%B1/%E8%AD%B0%E5%93%A1%E5%90%8D%E7%B0%BF/"
    ],
    "reprs_xpath": "//*[@id=\"inner-contents\"]/div[2]/div"
  },
  "青森県　佐井村": {
    "lat": 41.429718,
    "long": 140.859175,
    "building": "佐井村役場",
    "address": "下北郡佐井村大字佐井字糠森20",
    "urls": [],
    "reprs_xpath": ""
  },
  "青森県　三戸町": {
    "lat": 40.378423,
    "long": 141.25874,
    "building": "三戸町役場",
    "address": "三戸郡三戸町大字在府小路町43",
    "urls": [
      "https://www.town.sannohe.aomori.jp/choseijoho/gikai/aramashi/752.html"
    ],
    "reprs_xpath": "//*[@id=\"contents-in\"]/div[1]/div"
  },
  "青森県　五戸町": {
    "lat": 40.531208,
    "long": 141.307813,
    "building": "五戸町役場",
    "address": "三戸郡五戸町字古舘21-1",
    "urls": ["https://www.town.gonohe.aomori.jp/chosei/gikai/giin.html"],
    "reprs_xpath": "/html/body/div[4]/div[2]/div[2]/div[1]"
  },
  "青森県　田子町": {
    "lat": 40.34003,
    "long": 141.15215,
    "building": "田子町役場",
    "address": "三戸郡田子町大字田子字天神堂平81",
    "urls": ["https://www.town.takko.lg.jp/index.cfm/13,0,45,189,html"],
    "reprs_xpath": "//*[@id=\"CenterArea\"]/div[3]/section/div[1]/div"
  },
  "青森県　南部町": {
    "lat": 40.420343,
    "long": 141.330307,
    "building": "南部町役場",
    "address": "三戸郡南部町大字平字広場28-1",
    "urls": [
      "https://www.town.aomori-nanbu.lg.jp/index.cfm/12,931,56,225,html"
    ],
    "reprs_xpath": "//*[@id=\"CenterArea\"]/div[1]/div[1]/div"
  },
  "青森県　階上町": {
    "lat": 40.452454,
    "long": 141.621001,
    "building": "階上町役場",
    "address": "三戸郡階上町大字道仏字天当平1-87",
    "urls": [
      "https://www.town.hashikami.lg.jp/index.cfm/9,298,c,html/298/20230710-095343.pdf"
    ],
    "reprs_xpath": ""
  },
  "青森県　新郷村": {
    "lat": 40.465784,
    "long": 141.1734,
    "building": "新郷村役場",
    "address": "三戸郡新郷村大字戸来字風呂前10",
    "urls": [
      "http://www.vill.shingo.aomori.jp/public/ogani/sosiki/page-22130/gikai/"
    ],
    "reprs_xpath": "//*[@id=\"cont\"]"
  },
  "岩手県　盛岡市": {
    "lat": 39.701795,
    "long": 141.154183,
    "building": "盛岡市役所",
    "address": "盛岡市内丸12-2",
    "urls": [
      "https://www.city.morioka.iwate.jp/shisei/shigikai/giinshokai/giinmeibo/index.html",
      "https://city.morioka.iwate.jp/shisei/shigikai/giinshokai/giinmeibo/index.html"
    ],
    "reprs_xpath": "//*[@id=\"voice\"]"
  },
  "岩手県　宮古市": {
    "lat": 39.639554,
    "long": 141.946115,
    "building": "宮古市役所",
    "address": "宮古市宮町1-1-30",
    "urls": ["https://www.city.miyako.iwate.jp/gikai/giin_meibo.html"],
    "reprs_xpath": "/html/body/table/tbody/tr/td/table/tbody/tr[2]/td/table/tbody/tr/td/table/tbody/tr/td/table/tbody/tr[2]/td[1]/table/tbody/tr/td/div[2]/table/tbody"
  },
  "岩手県　大船渡市": {
    "lat": 39.081901,
    "long": 141.708547,
    "building": "大船渡市役所",
    "address": "大船渡市盛町字宇津野沢15",
    "urls": ["https://www.city.ofunato.iwate.jp/uploaded/attachment/33361.pdf"],
    "reprs_xpath": ""
  },
  "岩手県　花巻市": {
    "lat": 39.388609,
    "long": 141.116854,
    "building": "花巻市役所",
    "address": "花巻市花城町9-30",
    "urls": [
      "https://www.city.hanamaki.iwate.jp/shigikai/1004008/1004011/1004012.html",
      "https://www.city.hanamaki.iwate.jp/shigikai/1004008/1004011/1004013.html",
      "https://www.city.hanamaki.iwate.jp/shigikai/1004008/1004011/1004014.html",
      "https://www.city.hanamaki.iwate.jp/shigikai/1004008/1004011/1004015.html",
      "https://www.city.hanamaki.iwate.jp/shigikai/1004008/1004011/1004016.html",
      "https://www.city.hanamaki.iwate.jp/shigikai/1004008/1004011/1004017.html",
      "https://www.city.hanamaki.iwate.jp/shigikai/1004008/1004011/1004018.html",
      "https://www.city.hanamaki.iwate.jp/shigikai/1004008/1004011/1004019.html",
      "https://www.city.hanamaki.iwate.jp/shigikai/1004008/1004011/1004020.html",
      "https://www.city.hanamaki.iwate.jp/shigikai/1004008/1004011/1004021.html",
      "https://www.city.hanamaki.iwate.jp/shigikai/1004008/1004011/1004022.html",
      "https://www.city.hanamaki.iwate.jp/shigikai/1004008/1004011/1004023.html",
      "https://www.city.hanamaki.iwate.jp/shigikai/1004008/1004011/1004024.html",
      "https://www.city.hanamaki.iwate.jp/shigikai/1004008/1004011/1004025.html",
      "https://www.city.hanamaki.iwate.jp/shigikai/1004008/1004011/1004026.html",
      "https://www.city.hanamaki.iwate.jp/shigikai/1004008/1004011/1004027.html",
      "https://www.city.hanamaki.iwate.jp/shigikai/1004008/1004011/1004028.html",
      "https://www.city.hanamaki.iwate.jp/shigikai/1004008/1004011/1004029.html",
      "https://www.city.hanamaki.iwate.jp/shigikai/1004008/1004011/1004030.html",
      "https://www.city.hanamaki.iwate.jp/shigikai/1004008/1004011/1004031.html",
      "https://www.city.hanamaki.iwate.jp/shigikai/1004008/1004011/1004032.html",
      "https://www.city.hanamaki.iwate.jp/shigikai/1004008/1004011/1004033.html",
      "https://www.city.hanamaki.iwate.jp/shigikai/1004008/1004011/1004034.html",
      "https://www.city.hanamaki.iwate.jp/shigikai/1004008/1004011/1004035.html",
      "https://www.city.hanamaki.iwate.jp/shigikai/1004008/1004011/1004036.html",
      "https://www.city.hanamaki.iwate.jp/shigikai/1004008/1004011/1017072.html"
    ],
    "reprs_xpath": "//*[@id=\"voice\"]"
  },
  "岩手県　北上市": {
    "lat": 39.286817,
    "long": 141.113157,
    "building": "北上市役所",
    "address": "北上市芳町1-1",
    "urls": [
      "https://www.city.kitakami.iwate.jp/life/kitakamishigikai/giinnoshokai/16723.html",
      "https://www.city.kitakami.iwate.jp/life/kitakamishigikai/giinnoshokai/16724.html"
    ],
    "reprs_xpath": "//*[@id=\"contents-in\"]/div[1]/div"
  },
  "岩手県　久慈市": {
    "lat": 40.190466,
    "long": 141.775644,
    "building": "久慈市役所",
    "address": "久慈市川崎町1-1",
    "urls": ["https://www.city.kuji.iwate.jp/gikai/member/member/index.html"],
    "reprs_xpath": "//*[@id=\"Main\"]/div[3]/div/div/div[1]/section/div[2]/ul"
  },
  "岩手県　遠野市": {
    "lat": 39.331014,
    "long": 141.532352,
    "building": "遠野市役所",
    "address": "遠野市中央通り9-1",
    "urls": ["https://www.city.tono.iwate.jp/index.cfm/49,13513,266,557,html"],
    "reprs_xpath": "//*[@id=\"CenterArea\"]/div[1]/section/div[1]/div/table/tbody"
  },
  "岩手県　一関市": {
    "lat": 38.934754,
    "long": 141.126759,
    "building": "一関市役所",
    "address": "一関市竹山町7-2",
    "urls": [
      "https://www.city.ichinoseki.iwate.jp/index.cfm/41,0,250,800,html"
    ],
    "reprs_xpath": "//*[@id=\"CenterArea\"]/div[2]"
  },
  "岩手県　陸前高田市": {
    "lat": 39.020413,
    "long": 141.633321,
    "building": "陸前高田市役所",
    "address": "陸前高田市高田町字下和野100番地",
    "urls": [
      "https://www.city.rikuzentakata.iwate.jp/soshiki/gikaijimukyoku/3/6026.html"
    ],
    "reprs_xpath": "//*[@id=\"contents-in\"]/div[1]/div/div[2]/div/table"
  },
  "岩手県　釜石市": {
    "lat": 39.27581,
    "long": 141.885716,
    "building": "釜石市役所",
    "address": "釜石市只越町3-9-13",
    "urls": ["https://www.city.kamaishi.iwate.jp/shigikai/docs/2023090600033/"],
    "reprs_xpath": "//*[@id=\"content\"]/article/div[2]/div"
  },
  "岩手県　二戸市": {
    "lat": 40.271193,
    "long": 141.304805,
    "building": "二戸市役所",
    "address": "二戸市福岡字川又47",
    "urls": ["https://www.city.ninohe.lg.jp/Link/Pdf/2882"],
    "reprs_xpath": ""
  },
  "岩手県　八幡平市": {
    "lat": 39.956511,
    "long": 141.07112,
    "building": "八幡平市役所",
    "address": "八幡平市野駄21-170",
    "urls": ["https://www.city.hachimantai.lg.jp/site/gikai/1400.html"],
    "reprs_xpath": "//*[@id=\"main_a\"]"
  },
  "岩手県　奥州市": {
    "lat": 39.144506,
    "long": 141.139116,
    "building": "奥州市役所",
    "address": "奥州市水沢大手町1-1",
    "urls": ["https://www.city.oshu.iwate.jp/gikai/meibo/1243.html"],
    "reprs_xpath": "//*[@id=\"contents-in\"]/div[1]/div/div[2]/div/table"
  },
  "岩手県　滝沢市": {
    "lat": 39.734739,
    "long": 141.077065,
    "building": "滝沢市役所",
    "address": "滝沢市中鵜飼55",
    "urls": [
      "https://www.city.takizawa.iwate.jp/var/rev0/0133/3758/takizawa.giin.meibo.pdf"
    ],
    "reprs_xpath": ""
  },
  "岩手県　雫石町": {
    "lat": 39.696319,
    "long": 140.975779,
    "building": "雫石町役場",
    "address": "岩手郡雫石町千刈田5-1",
    "urls": [
      "https://www.town.shizukuishi.iwate.jp/tag/%E8%AD%B0%E5%93%A1%E5%90%8D%E7%B0%BF/"
    ],
    "reprs_xpath": ""
  },
  "岩手県　葛巻町": {
    "lat": 40.040086,
    "long": 141.438203,
    "building": "葛巻町役場",
    "address": "岩手郡葛巻町葛巻16-1-1",
    "urls": ["https://www.town.kuzumaki.iwate.jp/docs/2015111700143/"],
    "reprs_xpath": "//*[@id=\"contentContainer\"]"
  },
  "岩手県　岩手町": {
    "lat": 39.972768,
    "long": 141.212166,
    "building": "岩手町役場",
    "address": "岩手郡岩手町大字五日市10-44",
    "urls": ["https://town.iwate.iwate.jp/gikai/introduction/names/"],
    "reprs_xpath": "//*[@id=\"main\"]"
  },
  "岩手県　紫波町": {
    "lat": 39.554536,
    "long": 141.155796,
    "building": "紫波町役場",
    "address": "紫波郡紫波町紫波中央駅前2-3-1",
    "urls": [
      "https://img.japandx.co.jp/shiwatown/shiwa-town/material/files/group/23/R5meibo.pdf"
    ],
    "reprs_xpath": ""
  },
  "岩手県　矢巾町": {
    "lat": 39.606006,
    "long": 141.143001,
    "building": "矢巾町役場",
    "address": "紫波郡矢巾町大字南矢幅第13地割123番地",
    "urls": [
      "https://www.town.yahaba.iwate.jp/gikai/2023061600024/files/giin_meibo_R050701.pdf"
    ],
    "reprs_xpath": ""
  },
  "岩手県　西和賀町": {
    "lat": 39.317906,
    "long": 140.778754,
    "building": "西和賀町役場",
    "address": "和賀郡西和賀町川尻40地割40番地71",
    "urls": [
      "https://www.town.nishiwaga.lg.jp/gyosei_shigoto_sangyo/chogikai/2/1877.html"
    ],
    "reprs_xpath": "//*[@id=\"contents-in\"]/div[1]/div/div[2]/div/table/caption/div/table/tbody"
  },
  "岩手県　金ケ崎町": {
    "lat": 39.195687,
    "long": 141.116408,
    "building": "金ケ崎町役場",
    "address": "胆沢郡金ケ崎町西根南町22-1",
    "urls": ["https://www.town.kanegasaki.iwate.jp/gikai/files/kousei.pdf"],
    "reprs_xpath": ""
  },
  "岩手県　平泉町": {
    "lat": 38.986781,
    "long": 141.11398,
    "building": "平泉町役場",
    "address": "西磐井郡平泉町平泉字志羅山45-2",
    "urls": ["https://www.town.hiraizumi.iwate.jp/index.cfm/27,0,135,294,html"],
    "reprs_xpath": "//*[@id=\"CenterArea\"]/div[1]/div[1]/div/div[3]/table"
  },
  "岩手県　住田町": {
    "lat": 39.142209,
    "long": 141.575052,
    "building": "住田町役場",
    "address": "気仙郡住田町世田米字川向88-1",
    "urls": [
      "https://www.town.sumita.iwate.jp/docs/2015021700073/",
      "//*[@id=\"contentBody\"]/div/div[2]/table/tbody"
    ],
    "reprs_xpath": ""
  },
  "岩手県　大槌町": {
    "lat": 39.358196,
    "long": 141.899731,
    "building": "大槌町役場",
    "address": "上閉伊郡大槌町上町1番3号",
    "urls": ["https://www.town.otsuchi.iwate.jp/gyosei/docs/447039.html"],
    "reprs_xpath": "//*[@id=\"main\"]/article"
  },
  "岩手県　山田町": {
    "lat": 39.467619,
    "long": 141.948923,
    "building": "山田町役場",
    "address": "下閉伊郡山田町八幡町3-20",
    "urls": ["https://www.town.yamada.iwate.jp/docs/164.html"],
    "reprs_xpath": "//*[@id=\"content\"]/article"
  },
  "岩手県　岩泉町": {
    "lat": 39.843204,
    "long": 141.796675,
    "building": "岩泉町役場",
    "address": "下閉伊郡岩泉町岩泉字惣畑59-5",
    "urls": ["https://www.town.iwaizumi.lg.jp/docs/2016021700179/"],
    "reprs_xpath": "//*[@id=\"content\"]/article/div[3]/div/div/table"
  },
  "岩手県　田野畑村": {
    "lat": 39.930454,
    "long": 141.888864,
    "building": "田野畑村役場",
    "address": "下閉伊郡田野畑村田野畑143-1",
    "urls": [],
    "reprs_xpath": ""
  },
  "岩手県　普代村": {
    "lat": 40.005164,
    "long": 141.886014,
    "building": "普代村役場",
    "address": "下閉伊郡普代村第9地割字銅屋13-2",
    "urls": ["https://www.vill.fudai.iwate.jp/fs/3/7/5/3/_/R5.6.26____.pdf"],
    "reprs_xpath": ""
  },
  "岩手県　軽米町": {
    "lat": 40.326678,
    "long": 141.460349,
    "building": "軽米町役場",
    "address": "九戸郡軽米町大字軽米10-85",
    "urls": [
      "http://www.town.karumai.iwate.jp/article/docs/%E8%AD%B0%E5%93%A1%E5%90%8D%E7%B0%BF.pdf"
    ],
    "reprs_xpath": ""
  },
  "岩手県　野田村": {
    "lat": 40.110272,
    "long": 141.817674,
    "building": "野田村役場",
    "address": "九戸郡野田村大字野田第20地割14",
    "urls": [
      "https://www.vill.noda.iwate.jp/material/files/group/28/giinmeibo0509.pdf"
    ],
    "reprs_xpath": ""
  },
  "岩手県　九戸村": {
    "lat": 40.211356,
    "long": 141.418982,
    "building": "九戸村役場",
    "address": "九戸郡九戸村大字伊保内第10地割11番地6",
    "urls": [
      "https://vill.kunohe.iwate.jp/fs/8/4/8/2/_/%E4%B9%9D%E6%88%B8%E6%9D%91%E8%AD%B0%E4%BC%9A%E8%AD%B0%E5%93%A1%E5%90%8D%E7%B0%BF(R5.7.1).pdf"
    ],
    "reprs_xpath": ""
  },
  "岩手県　洋野町": {
    "lat": 40.408298,
    "long": 141.71865,
    "building": "洋野町役場",
    "address": "九戸郡洋野町種市23-27",
    "urls": ["https://www.town.hirono.iwate.jp/doc/2022012700028/"],
    "reprs_xpath": "//*[@id=\"content\"]/article/div[2]/div/div/table/tbody"
  },
  "岩手県　一戸町": {
    "lat": 40.212733,
    "long": 141.29546,
    "building": "一戸町役場",
    "address": "二戸郡一戸町高善寺字大川鉢24-9",
    "urls": [
      "https://www.town.ichinohe.iwate.jp/soshikikarasagasu/gikaijimukyoku/chogikai/373.html"
    ],
    "reprs_xpath": "//*[@id=\"contents-in\"]/div[1]/div/div/div/table/tbody"
  },
  "宮城県　仙台市": {
    "lat": 38.268008,
    "long": 140.869617,
    "building": "仙台市役所",
    "address": "仙台市青葉区国分町3-7-1",
    "multiple_pages": true,
    "urls": [
      "https://www.gikai.city.sendai.jp/list/district/aoba/index.html",
      "https://www.gikai.city.sendai.jp/list/district/miyagino/index.html",
      "https://www.gikai.city.sendai.jp/list/district/wakabayashi/index.html",
      "https://www.gikai.city.sendai.jp/list/district/taihaku/index.html",
      "https://www.gikai.city.sendai.jp/list/district/izumi/index.html"
    ],
    "ind_reprs_xpath": "//*[@id=\"main\"]/article/div/ul/li/a",
    "ind_reprs_info_xpath": "//*[@id=\"main\"]/article"
  },
  "宮城県　仙台市青葉区": {
    "lat": 38.269087,
    "long": 140.870378,
    "building": "仙台市青葉区役所",
    "address": "仙台市青葉区上杉1-5-1",
    "multiple_pages": true,
    "urls": ["https://www.gikai.city.sendai.jp/list/district/aoba/index.html"],
    "ind_reprs_xpath": "//*[@id=\"main\"]/article/div/ul/li/a",
    "ind_reprs_info_xpath": "//*[@id=\"main\"]/article"
  },
  "宮城県　仙台市宮城野区": {
    "lat": 38.266189,
    "long": 140.909841,
    "building": "仙台市宮城野区役所",
    "address": "仙台市宮城野区五輪2-12-35",
    "multiple_pages": true,
    "urls": [
      "https://www.gikai.city.sendai.jp/list/district/miyagino/index.html"
    ],
    "ind_reprs_xpath": "//*[@id=\"main\"]/article/div/ul/li/a",
    "ind_reprs_info_xpath": "//*[@id=\"main\"]/article/div"
  },
  "宮城県　仙台市若林区": {
    "lat": 38.24418,
    "long": 140.900748,
    "building": "仙台市若林区役所",
    "address": "仙台市若林区保春院前丁3-1",
    "multiple_pages": true,
    "urls": [
      "https://www.gikai.city.sendai.jp/list/district/wakabayashi/index.html"
    ],
    "ind_reprs_xpath": "//*[@id=\"main\"]/article/div/ul/li/a",
    "ind_reprs_info_xpath": "//*[@id=\"main\"]/article/div"
  },
  "宮城県　仙台市太白区": {
    "lat": 38.224395,
    "long": 140.877212,
    "building": "仙台市太白区役所",
    "address": "仙台市太白区長町南3-1-15",
    "multiple_pages": true,
    "urls": [
      "https://www.gikai.city.sendai.jp/list/district/taihaku/index.html",
      "//*[@id=\"main\"]/article/div/ul/li/a"
    ],
    "ind_reprs_xpath": "",
    "ind_reprs_info_xpath": "//*[@id=\"main\"]/article/div"
  },
  "宮城県　仙台市泉区": {
    "lat": 38.326361,
    "long": 140.881615,
    "building": "仙台市泉区役所",
    "address": "仙台市泉区泉中央2-1-1",
    "multiple_pages": true,
    "urls": ["https://www.gikai.city.sendai.jp/list/district/izumi/index.html"],
    "ind_reprs_xpath": "//*[@id=\"main\"]/article/div/ul/li/a",
    "ind_reprs_info_xpath": "//*[@id=\"main\"]/article/div"
  },
  "宮城県　石巻市": {
    "lat": 38.434457,
    "long": 141.302906,
    "building": "石巻市役所",
    "address": "石巻市穀町14-1",
    "urls": [
      "https://www.city.ishinomaki.lg.jp/cont/30101000/0014/0100/0400/20220510100021.html"
    ],
    "reprs_xpath": "//*[@id=\"main\"]/div[2]"
  },
  "宮城県　塩竈市": {
    "lat": 38.31436,
    "long": 141.02203,
    "building": "塩竈市役所",
    "address": "塩竈市旭町1-1",
    "urls": ["https://www.city.shiogama.miyagi.jp/soshiki/2/25732.html"],
    "reprs_xpath": "//*[@id=\"main_body\"]/div[1]/div[1]/div/div/table/tbody"
  },
  "宮城県　気仙沼市": {
    "lat": 38.908127,
    "long": 141.570044,
    "building": "気仙沼市役所",
    "address": "気仙沼市八日町1-1-1",
    "urls": [
      "https://www.kesennuma.miyagi.jp/sec/s154/010/010/020/020/20170421093921.html"
    ],
    "reprs_xpath": "//*[@id=\"main\"]/div[1]"
  },
  "宮城県　白石市": {
    "lat": 38.002467,
    "long": 140.619888,
    "building": "白石市役所",
    "address": "白石市大手町1-1",
    "urls": ["https://www.city.shiroishi.miyagi.jp/site/gikai/504.html"],
    "reprs_xpath": "//*[@id=\"main_body\"]/div[3]"
  },
  "宮城県　名取市": {
    "lat": 38.171501,
    "long": 140.891849,
    "building": "名取市役所",
    "address": "名取市増田字柳田80",
    "urls": [
      "https://www.city.natori.miyagi.jp/soshiki/gikaijimu/meibo/giinmeibo_r020201"
    ],
    "reprs_xpath": "//*[@id=\"main\"]/div/div/div/div/div[2]/table/tbody"
  },
  "宮城県　角田市": {
    "lat": 37.977016,
    "long": 140.781543,
    "building": "角田市役所",
    "address": "角田市角田字大坊41",
    "urls": ["https://www.city.kakuda.lg.jp/soshiki/19/88.html"],
    "reprs_xpath": "//*[@id=\"main_body\"]"
  },
  "宮城県　多賀城市": {
    "lat": 38.293803,
    "long": 141.004369,
    "building": "多賀城市役所",
    "address": "多賀城市中央2-1-1",
    "urls": [
      "https://www.city.tagajo.miyagi.jp/gikai/shise/shigikai/shokai/gin.html"
    ],
    "reprs_xpath": "//*[@id=\"tmp_contents\"]/table/tbody"
  },
  "宮城県　岩沼市": {
    "lat": 38.104303,
    "long": 140.869949,
    "building": "岩沼市役所",
    "address": "岩沼市桜1-6-20",
    "urls": ["http://www.gikai-iwanuma.jp/meibo/giin_ichiran.pdf"],
    "reprs_xpath": ""
  },
  "宮城県　登米市": {
    "lat": 38.691856,
    "long": 141.18772,
    "building": "登米市役所",
    "address": "登米市迫町佐沼字中江2-6-1",
    "urls": [
      "https://www.city.tome.miyagi.jp/gikaijimu/shisejoho/gyose/shigikai/ginshokai/giinnmeibo4/index.html"
    ],
    "reprs_xpath": "//*[@id=\"tmp_wrap_main\"]"
  },
  "宮城県　栗原市": {
    "lat": 38.730062,
    "long": 141.021508,
    "building": "栗原市役所",
    "address": "栗原市築館薬師1-7-1",
    "urls": ["https://www.kuriharacity.jp/w032/010/010/050/050/302.html"],
    "reprs_xpath": "//*[@id=\"main\"]/div/article/div"
  },
  "宮城県　東松島市": {
    "lat": 38.426134,
    "long": 141.210278,
    "building": "東松島市役所",
    "address": "東松島市矢本字上河戸36-1",
    "urls": [
      "https://www.city.higashimatsushima.miyagi.jp/gikai/giinmeibo/giinmeibo.html"
    ],
    "reprs_xpath": "//*[@id=\"main\"]/div[1]"
  },
  "宮城県　大崎市": {
    "lat": 38.577132,
    "long": 140.955565,
    "building": "大崎市役所",
    "address": "大崎市古川七日町1-1",
    "urls": [
      "https://www.city.osaki.miyagi.jp/shisei/soshikikarasagasu/gikaijimukyoku/2/9555.html"
    ],
    "reprs_xpath": "//*[@id=\"contents\"]"
  },
  "宮城県　富谷市": {
    "lat": 38.399918,
    "long": 140.895485,
    "building": "富谷市役所",
    "address": "富谷市富谷坂松田30",
    "urls": [
      "https://www.tomiya-city.miyagi.jp/shisei/shigikai/giinmeibo/gmeibo.html"
    ],
    "reprs_xpath": "//*[@id=\"wrap\"]/section[1]/div"
  },
  "宮城県　蔵王町": {
    "lat": 38.098128,
    "long": 140.65868,
    "building": "蔵王町役場",
    "address": "刈田郡蔵王町大字円田字西浦北10",
    "urls": [
      "https://www.town.zao.miyagi.jp/kurashi_guide/gikai_senkyo/gikai/giin.html"
    ],
    "reprs_xpath": "//*[@id=\"wrap\"]"
  },
  "宮城県　七ケ宿町": {
    "lat": 37.993063,
    "long": 140.441615,
    "building": "七ケ宿町役場",
    "address": "刈田郡七ケ宿町字関126",
    "urls": ["http://town.shichikashuku.miyagi.jp/town/gikai/giin.html"],
    "reprs_xpath": "//*[@id=\"main\"]"
  },
  "宮城県　大河原町": {
    "lat": 38.049412,
    "long": 140.730774,
    "building": "大河原町役場",
    "address": "柴田郡大河原町字新南19",
    "urls": ["https://www.town.ogawara.miyagi.jp/1491.htm"],
    "reprs_xpath": "//*[@id=\"ContentPane\"]"
  },
  "宮城県　村田町": {
    "lat": 38.118589,
    "long": 140.722404,
    "building": "村田町役場",
    "address": "柴田郡村田町大字村田字迫6",
    "urls": ["http://www.town.murata.miyagi.jp/cyosei/gikai/meibo/index.html"],
    "reprs_xpath": "//*[@id=\"wrap\"]/div[2]"
  },
  "宮城県　柴田町": {
    "lat": 38.056599,
    "long": 140.765798,
    "building": "柴田町役場",
    "address": "柴田郡柴田町船岡中央2-3-45",
    "urls": ["https://www.town.shibata.miyagi.jp/index.cfm/82,27339,169,html"],
    "reprs_xpath": "//*[@id=\"Main\"]/div[2]/section/div[1]/div/table/tbody"
  },
  "宮城県　川崎町": {
    "lat": 38.177751,
    "long": 140.643188,
    "building": "川崎町役場",
    "address": "柴田郡川崎町大字前川字裏丁175-1",
    "urls": ["https://www.town.kawasaki.miyagi.jp/site/gikai/348.html"],
    "reprs_xpath": "//*[@id=\"main_body\"]"
  },
  "宮城県　丸森町": {
    "lat": 37.911536,
    "long": 140.765365,
    "building": "丸森町役場",
    "address": "伊具郡丸森町字鳥屋120",
    "urls": [
      "https://www.town.marumori.miyagi.jp/common/img/content/content_20211224_164549.pdf"
    ],
    "reprs_xpath": ""
  },
  "宮城県　亘理町": {
    "lat": 38.044263,
    "long": 140.867924,
    "building": "亘理町役場",
    "address": "亘理郡亘理町字悠里1",
    "urls": [
      "https://www.town.watari.miyagi.jp/common/img/content/content_20221206_131145.pdf"
    ],
    "reprs_xpath": ""
  },
  "宮城県　山元町": {
    "lat": 37.962706,
    "long": 140.878052,
    "building": "山元町役場",
    "address": "亘理郡山元町浅生原字作田山32",
    "urls": [
      "https://www.town.yamamoto.miyagi.jp/uploaded/attachment/14517.pdf"
    ],
    "reprs_xpath": ""
  },
  "宮城県　松島町": {
    "lat": 38.380149,
    "long": 141.067291,
    "building": "松島町役場",
    "address": "宮城郡松島町高城字帰命院下一19-1",
    "urls": [],
    "reprs_xpath": "//*[@id=\"Main\"]/div[2]/section"
  },
  "宮城県　七ヶ浜町": {
    "lat": 38.304554,
    "long": 141.059143,
    "building": "七ヶ浜町役場",
    "address": "宮城郡七ヶ浜町東宮浜字丑谷辺5-1",
    "urls": [
      "https://www.shichigahama.com/benricho/oshirase/sanka3-050-11233.html"
    ],
    "reprs_xpath": "//*[@id=\"main\"]/div/div/div[2]"
  },
  "宮城県　利府町": {
    "lat": 38.330355,
    "long": 140.975793,
    "building": "利府町役場",
    "address": "宮城郡利府町利府字新並松4",
    "urls": [
      "https://www.town.rifu.miyagi.jp/gyosei/soshikikarasagasu/gikai/1/4/4810.html"
    ],
    "reprs_xpath": "//*[@id=\"contents\"]"
  },
  "宮城県　大和町": {
    "lat": 38.43733,
    "long": 140.886309,
    "building": "大和町役場",
    "address": "黒川郡大和町吉岡まほろば1-1-1",
    "urls": ["https://www.town.taiwa.miyagi.jp/site/gikai/18177.html"],
    "reprs_xpath": "//*[@id=\"main_body\"]"
  },
  "宮城県　大郷町": {
    "lat": 38.424244,
    "long": 141.00446,
    "building": "大郷町役場",
    "address": "黒川郡大郷町粕川字西長崎5-8",
    "urls": ["https://www.town.miyagi-osato.lg.jp/soshiki/gikai/giin.html"],
    "reprs_xpath": "//*[@id=\"main_body\"]"
  },
  "宮城県　大衡村": {
    "lat": 38.467278,
    "long": 140.879982,
    "building": "大衡村役場",
    "address": "黒川郡大衡村大衡字平林62",
    "urls": ["https://www.village.ohira.miyagi.jp/site/gikai/6985.html"],
    "reprs_xpath": "//*[@id=\"main_a\"]"
  },
  "宮城県　色麻町": {
    "lat": 38.548921,
    "long": 140.849876,
    "building": "色麻町役場",
    "address": "加美郡色麻町四竃字北谷地41",
    "urls": ["https://www.town.shikama.miyagi.jp/soshiki/gikai/1/1/613.html"],
    "reprs_xpath": "//*[@id=\"contents-in\"]/div[1]/div"
  },
  "宮城県　加美町": {
    "lat": 38.57177,
    "long": 140.854759,
    "building": "加美町役場",
    "address": "加美郡加美町字西田3-5",
    "urls": [
      "https://www.town.kami.miyagi.jp/soshikikarasagasu/gikaijimukyoku/kamimachigikai/583.html"
    ],
    "reprs_xpath": "//*[@id=\"contents-in\"]/div[1]/div"
  },
  "宮城県　涌谷町": {
    "lat": 38.539704,
    "long": 141.128105,
    "building": "涌谷町役場",
    "address": "遠田郡涌谷町字新町裏153-2",
    "urls": ["http://www.town.wakuya.miyagi.jp/gyose/gikai/gin.html"],
    "reprs_xpath": "//*[@id=\"tmp_contents\"]"
  },
  "宮城県　美里町": {
    "lat": 38.5444,
    "long": 141.056717,
    "building": "美里町役場",
    "address": "遠田郡美里町北浦字駒米13",
    "urls": [
      "https://www.town.misato.miyagi.jp/15tyogikai/151guide/2006-1101-1357-8.html"
    ],
    "reprs_xpath": "//*[@id=\"cont_cha\"]/div[2]/table/tbody"
  },
  "宮城県　女川町": {
    "lat": 38.445388,
    "long": 141.442693,
    "building": "女川町役場",
    "address": "牡鹿郡女川町女川1-1-1",
    "urls": ["https://gikai-town-onagawa.jp/meibo.html"],
    "reprs_xpath": "/html/body/div[3]/div/div[3]/div/div[1]/div"
  },
  "宮城県　南三陸町": {
    "lat": 38.680666,
    "long": 141.462492,
    "building": "南三陸町役場",
    "address": "本吉郡南三陸町志津川字沼田101",
    "urls": [
      "https://www.town.minamisanriku.miyagi.jp/index.cfm/18,35939,52,369,html"
    ],
    "reprs_xpath": "//*[@id=\"CenterArea\"]/div[1]"
  },
  "秋田県　秋田市": {
    "lat": 39.719929,
    "long": 140.102512,
    "building": "秋田市役所",
    "address": "秋田市山王1-1-1",
    "multiple_pages": true,
    "urls": ["https://www.city.akita.lg.jp/shigikai/giin/1009503/index.html"],
    "ind_reprs_xpath": "//*[@id=\"voice\"]/ul/li/a",
    "ind_reprs_info_xpath": "//*[@id=\"voice\"]"
  },
  "秋田県　能代市": {
    "lat": 40.212131,
    "long": 140.026641,
    "building": "能代市役所",
    "address": "能代市上町1-3",
    "urls": ["https://www.city.noshiro.lg.jp/city/gikai/meibo/1386"],
    "reprs_xpath": "//*[@id=\"main\"]/article/div/table"
  },
  "秋田県　横手市": {
    "lat": 39.313777,
    "long": 140.566636,
    "building": "横手市役所",
    "address": "横手市中央町8-2",
    "multiple_pages": true,
    "urls": [
      "https://www.city.yokote.lg.jp/shigikai/1001547/1005517/index.html"
    ],
    "ind_reprs_xpath": "//*[@id=\"voice\"]/ul[3]/li/a",
    "ind_reprs_info_xpath": "//*[@id=\"voice\"]"
  },
  "秋田県　大館市": {
    "lat": 40.271685,
    "long": 140.565241,
    "building": "大館市役所",
    "address": "大館市字中城20",
    "urls": ["https://www.city.odate.lg.jp/gikai_meibo"],
    "reprs_xpath": "//*[@id=\"page_content\"]/div[2]/div/div[2]/table/tbody"
  },
  "秋田県　男鹿市": {
    "lat": 39.886721,
    "long": 139.8475,
    "building": "男鹿市役所",
    "address": "男鹿市船川港船川字泉台66-1",
    "urls": [
      "https://www.city.oga.akita.jp/material/files/group/16/220502ogashigikaigiinnmeibo.pdf"
    ],
    "reprs_xpath": ""
  },
  "秋田県　湯沢市": {
    "lat": 39.164074,
    "long": 140.494683,
    "building": "湯沢市役所",
    "address": "湯沢市佐竹町1-1",
    "urls": ["https://www.city-yuzawa.jp/site/gikai/580.html"],
    "reprs_xpath": "//*[@id=\"main_a\"]"
  },
  "秋田県　鹿角市": {
    "lat": 40.215789,
    "long": 140.788519,
    "building": "鹿角市役所",
    "address": "鹿角市花輪字荒田4-1",
    "urls": [
      "https://www.city.kazuno.akita.jp/soshiki/gikai/gyomu/1/3/2/7389.html"
    ],
    "reprs_xpath": "//*[@id=\"contents\"]"
  },
  "秋田県　由利本荘市": {
    "lat": 39.385814,
    "long": 140.048819,
    "building": "由利本荘市役所",
    "address": "由利本荘市尾崎17",
    "multiple_pages": true,
    "urls": [
      "https://www.city.yurihonjo.lg.jp/1001571/1001641/1001762/index.html"
    ],
    "ind_reprs_xpath": "//*[@id=\"voice\"]/ul/li/a",
    "ind_reprs_info_xpath": "//*[@id=\"voice\"]"
  },
  "秋田県　潟上市": {
    "lat": 39.857288,
    "long": 140.013049,
    "building": "潟上市役所",
    "address": "潟上市天王字棒沼台226-1",
    "urls": [
      "https://www.city.katagami.lg.jp/soshiki/gikaijimukyoku/giimmeibo/1039.html"
    ],
    "reprs_xpath": "//*[@id=\"contents-in\"]/div[1]/div/div[3]/div/table"
  },
  "秋田県　大仙市": {
    "lat": 39.45309,
    "long": 140.475448,
    "building": "大仙市役所",
    "address": "大仙市大曲花園町1-1",
    "urls": ["https://www.city.daisen.lg.jp/docs/2013100800058/"],
    "reprs_xpath": "//*[@id=\"contentBody\"]/article/div[2]/div/table/tbody"
  },
  "秋田県　北秋田市": {
    "lat": 40.226046,
    "long": 140.370728,
    "building": "北秋田市役所",
    "address": "北秋田市花園町19-1",
    "urls": ["https://www.city.kitaakita.akita.jp/archive/contents-118"],
    "reprs_xpath": "//*[@id=\"skip-link\"]/div[2]/div/section/div[2]"
  },
  "秋田県　にかほ市": {
    "lat": 39.203067,
    "long": 139.907649,
    "building": "にかほ市役所",
    "address": "にかほ市象潟町字浜ノ田1",
    "urls": ["https://www.nikahoshigikai.akita.jp/members.html"],
    "reprs_xpath": "//*[@id=\"assemblylist\"]"
  },
  "秋田県　仙北市": {
    "lat": 39.700044,
    "long": 140.730728,
    "building": "仙北市役所",
    "address": "仙北市田沢湖生保内字宮ノ後30",
    "urls": ["https://www.city.semboku.akita.jp/government/assembly/giin.html"],
    "reprs_xpath": "//*[@id=\"top\"]/main/article/div/div/div/div[1]/section/div"
  },
  "秋田県　小坂町": {
    "lat": 40.332926,
    "long": 140.736191,
    "building": "小坂町役場",
    "address": "鹿角郡小坂町小坂字上谷地41-1",
    "urls": [
      "https://www.town.kosaka.akita.jp/machinososhiki/gikaijimukyoku/123.html"
    ],
    "reprs_xpath": "//*[@id=\"contents-in\"]/div[1]/div/div/div[1]/table"
  },
  "秋田県　上小阿仁村": {
    "lat": 40.063263,
    "long": 140.295736,
    "building": "上小阿仁村役場",
    "address": "北秋田郡上小阿仁村小沢田字向川原118",
    "urls": ["https://www.vill.kamikoani.akita.jp/info/7"],
    "reprs_xpath": "/html/body/form/div[2]/section/div[3]/div"
  },
  "秋田県　藤里町": {
    "lat": 40.278399,
    "long": 140.261879,
    "building": "藤里町役場",
    "address": "山本郡藤里町藤琴字藤琴8",
    "urls": [
      "https://www.town.fujisato.akita.jp/up/files/town/c613/meibo/giinmeibo.pdf"
    ],
    "reprs_xpath": ""
  },
  "秋田県　三種町": {
    "lat": 40.101615,
    "long": 140.004981,
    "building": "三種町役場",
    "address": "山本郡三種町鵜川字岩谷子8",
    "urls": [
      "https://www.town.mitane.akita.jp/soshikikarasagasu/gikaijimukyoku/1/545.html"
    ],
    "reprs_xpath": "//*[@id=\"contents-in\"]/div[1]/div"
  },
  "秋田県　八峰町": {
    "lat": 40.318715,
    "long": 140.038618,
    "building": "八峰町役場",
    "address": "山本郡八峰町峰浜目名潟字目長田118",
    "urls": ["https://www.town.happo.lg.jp/archive/contents-823"],
    "reprs_xpath": "//*[@id=\"top\"]/main/article/div[2]/div/section[3]/div/table"
  },
  "秋田県　五城目町": {
    "lat": 39.943895,
    "long": 140.111309,
    "building": "五城目町役場",
    "address": "南秋田郡五城目町西磯ノ目1-1-1",
    "urls": ["https://www.town.gojome.akita.jp/town/gikai/gikaioshirase/1334"],
    "reprs_xpath": "//*[@id=\"main\"]/article/div[1]/table/tbody"
  },
  "秋田県　八郎潟町": {
    "lat": 39.949023,
    "long": 140.073358,
    "building": "八郎潟町役場",
    "address": "南秋田郡八郎潟町字大道80",
    "urls": [
      "https://www.town.hachirogata.akita.jp/_res/projects/default_project/_page_/001/001/901/1001901_001.pdf"
    ],
    "reprs_xpath": ""
  },
  "秋田県　井川町": {
    "lat": 39.914188,
    "long": 140.081265,
    "building": "井川町役場",
    "address": "南秋田郡井川町北川尻字海老沢樋ノ口78-1",
    "urls": [
      "http://www.town.ikawa.akita.jp/docs/2015040300018/file_contents/ikawaGiinMeibo20210324.pdf"
    ],
    "reprs_xpath": ""
  },
  "秋田県　大潟村": {
    "lat": 40.017788,
    "long": 139.960064,
    "building": "大潟村役場",
    "address": "南秋田郡大潟村字中央1-1",
    "urls": ["https://www.vill.ogata.akita.jp/archive/member"],
    "reprs_xpath": "//*[@id=\"top\"]/div/main/div[2]/div/div/div[1]/section/table[1]"
  },
  "秋田県　美郷町": {
    "lat": 39.461633,
    "long": 140.582127,
    "building": "美郷町役場",
    "address": "仙北郡美郷町土崎字上野乙170-10",
    "multiple_pages": true,
    "urls": ["https://www.town.misato.akita.jp/giinnmeibo/3280"],
    "ind_reprs_xpath": "//a[contains(@href, 'https://www.town.misato.akita.jp/giinnmeibo/')]",
    "ind_reprs_info_xpath": "//*[@id=\"idx8\"]/div/table/tbody"
  },
  "秋田県　羽後町": {
    "lat": 39.199323,
    "long": 140.412881,
    "building": "羽後町役場",
    "address": "雄勝郡羽後町西馬音内字中野177",
    "urls": [
      "https://www.town.ugo.lg.jp/uploads/user/gikaijimu/File/2020/4%E6%9C%88%E8%87%A8%E6%99%82%E4%BC%9A/r2%E8%AD%B0%E5%93%A1%E5%90%8D%E7%B0%BF.pdf"
    ],
    "reprs_xpath": ""
  },
  "秋田県　東成瀬村": {
    "lat": 39.179185,
    "long": 140.648892,
    "building": "東成瀬村役場",
    "address": "雄勝郡東成瀬村田子内字仙人下30-1",
    "urls": [
      "https://vill.higashinaruse.lg.jp/villager/village_government/gikai/post-23260/"
    ],
    "reprs_xpath": "//*[@id=\"page-single\"]/div/article/div/figure/table"
  },
  "山形県　山形市": {
    "lat": 38.255436,
    "long": 140.339605,
    "building": "山形市役所",
    "address": "山形市旅篭町2-3-25",
    "urls": [
      "https://www.city.yamagata-yamagata.lg.jp/gikai/giin/1001203.html"
    ],
    "reprs_xpath": "//*[@id=\"voice\"]"
  },
  "山形県　米沢市": {
    "lat": 37.921869,
    "long": 140.11614,
    "building": "米沢市役所",
    "address": "米沢市金池5-2-25",
    "urls": ["https://www.city.yonezawa.yamagata.jp/1709.html"],
    "reprs_xpath": "//*[@id=\"LeftPane\"]/div[1]/div/table/tbody"
  },
  "山形県　鶴岡市": {
    "lat": 38.727183,
    "long": 139.826725,
    "building": "鶴岡市役所",
    "address": "鶴岡市馬場町9-25",
    "urls": [
      "https://www.city.tsuruoka.lg.jp/shisei/gikai/giinsyokai/giinitiran.html"
    ],
    "reprs_xpath": "//*[@id=\"main\"]"
  },
  "山形県　酒田市": {
    "lat": 38.914386,
    "long": 139.836513,
    "building": "酒田市役所",
    "address": "酒田市本町2-2-45",
    "urls": ["https://www.city.sakata.lg.jp/shisei/shigikai/giin/syokai.html"],
    "reprs_xpath": "//*[@id=\"main\"]"
  },
  "山形県　新庄市": {
    "lat": 38.76496,
    "long": 140.301664,
    "building": "新庄市役所",
    "address": "新庄市沖の町10-37",
    "multiple_pages": true,
    "urls": [
      "https://www.city.shinjo.yamagata.jp/s015/010/20190830090505.html"
    ],
    "ind_reprs_xpath": "//td/a",
    "ind_reprs_info_xpath": "//*[@id=\"main\"]/div[2]/article/div[2]/div"
  },
  "山形県　寒河江市": {
    "lat": 38.380954,
    "long": 140.276068,
    "building": "寒河江市役所",
    "address": "寒河江市中央1-9-45",
    "urls": [
      "https://www.city.sagae.yamagata.jp/shigikai/giininfo/giin-syokai.html"
    ],
    "reprs_xpath": "//*[@id=\"main\"]"
  },
  "山形県　上山市": {
    "lat": 38.149562,
    "long": 140.26783,
    "building": "上山市役所",
    "address": "上山市河崎1-1-10",
    "urls": [
      "https://www.city.kaminoyama.yamagata.jp/site/gikai/gisekibangouzyun.html"
    ],
    "reprs_xpath": "//*[@id=\"main_body\"]/div[1]/div[2]/div/div/table/tbody"
  },
  "山形県　村山市": {
    "lat": 38.483352,
    "long": 140.38038,
    "building": "村山市役所",
    "address": "村山市中央1-3-6",
    "urls": ["https://www.city.murayama.lg.jp/shisei/gikai/nougyouiin.html"],
    "reprs_xpath": "//*[@id=\"main\"]"
  },
  "山形県　長井市": {
    "lat": 38.106088,
    "long": 140.033947,
    "building": "長井市役所",
    "address": "長井市栄町1-1",
    "urls": ["https://www.city.nagai.yamagata.jp/shigikai/1/12415.html"],
    "reprs_xpath": "//*[@id=\"container-in\"]"
  },
  "山形県　天童市": {
    "lat": 38.362177,
    "long": 140.377802,
    "building": "天童市役所",
    "address": "天童市老野森1-1-1",
    "urls": [
      "https://www.city.tendo.yamagata.jp/congress/giin/shigikaigiinn--syoukai.html"
    ],
    "reprs_xpath": "//*[@id=\"main_content_2nd_main\"]/div"
  },
  "山形県　東根市": {
    "lat": 38.431292,
    "long": 140.391021,
    "building": "東根市役所",
    "address": "東根市中央1-1-1",
    "urls": [
      "https://www.city.higashine.yamagata.jp/section_list/section018/1891"
    ],
    "reprs_xpath": "//*[@id=\"page-honbun\"]/div/div"
  },
  "山形県　尾花沢市": {
    "lat": 38.60062,
    "long": 140.405693,
    "building": "尾花沢市役所",
    "address": "尾花沢市若葉町1-2-3",
    "urls": [
      "https://www.city.obanazawa.yamagata.jp/files/original/20230810134209055906044fe.pdf"
    ],
    "reprs_xpath": ""
  },
  "山形県　南陽市": {
    "lat": 38.055116,
    "long": 140.148309,
    "building": "南陽市役所",
    "address": "南陽市三間通436-1",
    "urls": ["http://www.city.nanyo.yamagata.jp/meibo/121"],
    "reprs_xpath": "//*[@id=\"body\"]/div[1]"
  },
  "山形県　山辺町": {
    "lat": 38.289217,
    "long": 140.26218,
    "building": "山辺町役場",
    "address": "東村山郡山辺町緑ヶ丘5",
    "urls": [
      "https://www.town.yamanobe.yamagata.jp/uploaded/life/7745_30186_misc.pdf"
    ],
    "reprs_xpath": ""
  },
  "山形県　中山町": {
    "lat": 38.333122,
    "long": 140.283051,
    "building": "中山町役場",
    "address": "東村山郡中山町長崎120",
    "urls": ["https://www.town.nakayama.yamagata.jp/gikai/syokai/1250.html"],
    "reprs_xpath": "//*[@id=\"contents\"]"
  },
  "山形県　河北町": {
    "lat": 38.426632,
    "long": 140.31459,
    "building": "河北町役場",
    "address": "西村山郡河北町谷地戊81",
    "urls": [
      "https://www.town.kahoku.yamagata.jp/soshiki/gikai/gizi/1089.html"
    ],
    "reprs_xpath": "//*[@id=\"contents\"]"
  },
  "山形県　西川町": {
    "lat": 38.426487,
    "long": 140.147661,
    "building": "西川町役場",
    "address": "西村山郡西川町大字海味510",
    "urls": [
      "https://www.town.nishikawa.yamagata.jp/chogikai/chogikai21020002.html"
    ],
    "reprs_xpath": "//*[@id=\"tempright_box\"]/table[2]/tbody"
  },
  "山形県　朝日町": {
    "lat": 38.299293,
    "long": 140.145924,
    "building": "朝日町役場",
    "address": "西村山郡朝日町大字宮宿1115",
    "urls": [
      "https://www.town.asahi.yamagata.jp/portal/administration/asahimachigikai/giinshokai/8924.html"
    ],
    "reprs_xpath": "//*[@id=\"container\"]"
  },